[
    {
        "name": "Abu Dhabi",
        "country": "United Arab Emirates",
        "code": "AEAUH",
        "lat": 24.466666666666665,
        "lng": 54.36666666666667
    },
    {
        "name": "Ar Ruways",
        "country": "United Arab Emirates",
        "code": "AERUW",
        "lat": 24.116666666666667,
        "lng": 52.733333333333334
    },
    {
        "name": "Khor al Fakkan",
        "country": "United Arab Emirates",
        "code": "AEKLF",
        "lat": 25.333333333333332,
        "lng": 56.35
    },
    {
        "name": "Mina Khalid",
        "country": "United Arab Emirates",
        "code": "AEMKH",
        "lat": 25.35,
        "lng": 55.36666666666667
    },
    {
        "name": "Mina Khalifa/Abu Dhabi",
        "country": "United Arab Emirates",
        "code": "AEKHL",
        "lat": 24.833333333333332,
        "lng": 54.666666666666664
    },
    {
        "name": "Umm al Qaiwain",
        "country": "United Arab Emirates",
        "code": "AEQIW",
        "lat": 25.566666666666666,
        "lng": 55.55
    },
    {
        "name": "Saint John's",
        "country": "Antigua and Barbuda",
        "code": "AGSJO",
        "lat": 17.116666666666667,
        "lng": -61.85
    },
    {
        "name": "Bah a Blanca",
        "country": "Argentina",
        "code": "ARBHI",
        "lat": -38.71666666666667,
        "lng": -62.28333333333333
    },
    {
        "name": "Buenos Aires",
        "country": "Argentina",
        "code": "ARBUE",
        "lat": -34.583333333333336,
        "lng": -58.666666666666664
    },
    {
        "name": "Mar del Plata",
        "country": "Argentina",
        "code": "ARMDQ",
        "lat": -38.05,
        "lng": -57.53333333333333
    },
    {
        "name": "Puerto Deseado",
        "country": "Argentina",
        "code": "ARPUD",
        "lat": -47.75,
        "lng": -65.9
    },
    {
        "name": "Puerto Madryn",
        "country": "Argentina",
        "code": "ARPMY",
        "lat": -42.75,
        "lng": -65.03333333333333
    },
    { "name": "Rosario", "country": "Argentina", "code": "ARROS", "lat": -32.95, "lng": -60.65 },
    {
        "name": "San Antonio Este",
        "country": "Argentina",
        "code": "ARSAE",
        "lat": -40.8,
        "lng": -64.73333333333333
    },
    { "name": "Ushuaia", "country": "Argentina", "code": "ARUSH", "lat": -54.8, "lng": -68.3 },
    {
        "name": "Z rate",
        "country": "Argentina",
        "code": "ARZAE",
        "lat": -34.1,
        "lng": -59.03333333333333
    },
    {
        "name": "Pago Pago",
        "country": "American Samoa",
        "code": "ASPPG",
        "lat": 14.266666666666667,
        "lng": -170.7
    },
    {
        "name": "Adelaide",
        "country": "Australia",
        "code": "AUADL",
        "lat": -34.916666666666664,
        "lng": 138.58333333333334
    },
    {
        "name": "Brisbane",
        "country": "Australia",
        "code": "AUBNE",
        "lat": -27.466666666666665,
        "lng": 153.01666666666668
    },
    {
        "name": "Darwin",
        "country": "Australia",
        "code": "AUDRW",
        "lat": -12.45,
        "lng": 130.83333333333334
    },
    {
        "name": "Melbourne",
        "country": "Australia",
        "code": "AUMEL",
        "lat": -37.81666666666667,
        "lng": 144.96666666666667
    },
    { "name": "Sydney", "country": "Australia", "code": "AUSYD", "lat": -33.85, "lng": 151.2 },
    {
        "name": "Barcadera",
        "country": "Aruba",
        "code": "AWBAR",
        "lat": 12.483333333333333,
        "lng": -69.98333333333333
    },
    {
        "name": "Chattogram",
        "country": "Bangladesh",
        "code": "BDCGP",
        "lat": 22.333333333333332,
        "lng": 91.83333333333333
    },
    {
        "name": "Antwerpen",
        "country": "Belgium",
        "code": "BEANR",
        "lat": 51.21666666666667,
        "lng": 4.416666666666667
    },
    {
        "name": "Gent (Ghent)",
        "country": "Belgium",
        "code": "BEGNE",
        "lat": 51.05,
        "lng": 3.716666666666667
    },
    {
        "name": "Zeebrugge",
        "country": "Belgium",
        "code": "BEZEE",
        "lat": 51.333333333333336,
        "lng": 3.2
    },
    {
        "name": "Mina Sulman Port",
        "country": "Bahrain",
        "code": "BHMIN",
        "lat": 26.2,
        "lng": 50.61666666666667
    },
    {
        "name": "Kralendijk",
        "country": "Bonaire, Sint Eustatius and Saba",
        "code": "BQKRA",
        "lat": 12.15,
        "lng": -68.26666666666667
    },
    {
        "name": "Itagua ",
        "country": "Brazil",
        "code": "BRIGI",
        "lat": -22.866666666666667,
        "lng": -43.766666666666666
    },
    {
        "name": "Itapo ",
        "country": "Brazil",
        "code": "BRIOA",
        "lat": -26.116666666666667,
        "lng": -48.6
    },
    { "name": "Navegantes", "country": "Brazil", "code": "BRNVT", "lat": -26.9, "lng": -48.65 },
    {
        "name": "Paranagu ",
        "country": "Brazil",
        "code": "BRPNG",
        "lat": -25.516666666666666,
        "lng": -48.5
    },
    {
        "name": "Pec m Pt/S o Gon alo do Amarante",
        "country": "Brazil",
        "code": "BRPEC",
        "lat": -3.533333333333333,
        "lng": -38.86666666666667
    },
    {
        "name": "Rio de Janeiro",
        "country": "Brazil",
        "code": "BRRIO",
        "lat": -22.883333333333333,
        "lng": -43.233333333333334
    },
    {
        "name": "Santana Pt./Macap ",
        "country": "Brazil",
        "code": "BRMCP",
        "lat": -0.05,
        "lng": -51.166666666666664
    },
    {
        "name": "Santos",
        "country": "Brazil",
        "code": "BRSSZ",
        "lat": -23.95,
        "lng": -46.333333333333336
    },
    { "name": "S o Lu s", "country": "Brazil", "code": "BRSLZ", "lat": -2.5, "lng": -44.3 },
    {
        "name": "Vit ria Pt",
        "country": "Brazil",
        "code": "BRVIX",
        "lat": -20.316666666666666,
        "lng": -40.333333333333336
    },
    {
        "name": "Nassau",
        "country": "Bahamas",
        "code": "BSNAS",
        "lat": 25.083333333333332,
        "lng": -77.35
    },
    {
        "name": "Big Creek",
        "country": "Belize",
        "code": "BZBGK",
        "lat": 16.516666666666666,
        "lng": -88.4
    },
    { "name": "Argentia", "country": "Canada", "code": "CANWP", "lat": 47.3, "lng": -54 },
    {
        "name": "Saint-John",
        "country": "Canada",
        "code": "CASJB",
        "lat": 45.266666666666666,
        "lng": -66.06666666666666
    },
    {
        "name": "Saint-John's",
        "country": "Canada",
        "code": "CASJF",
        "lat": 47.56666666666667,
        "lng": -52.733333333333334
    },
    {
        "name": "Banana",
        "country": "Congo, The Democratic Republic of the",
        "code": "CDBNW",
        "lat": -6.003633266930797,
        "lng": 12.40121189273204
    },
    { "name": "Pointe Noire", "country": "Congo", "code": "CGPNR", "lat": -4.8, "lng": 11.85 },
    {
        "name": "Abidjan",
        "country": "C te d'Ivoire",
        "code": "CIABJ",
        "lat": 5.333333333333333,
        "lng": -4.016666666666667
    },
    {
        "name": "San-P dro",
        "country": "C te d'Ivoire",
        "code": "CISPY",
        "lat": 4.733333333333333,
        "lng": -6.616666666666667
    },
    {
        "name": "Antofagasta",
        "country": "Chile",
        "code": "CLANF",
        "lat": -23.633333333333333,
        "lng": -70.38333333333334
    },
    {
        "name": "Arica",
        "country": "Chile",
        "code": "CLARI",
        "lat": -18.483333333333334,
        "lng": -70.31666666666666
    },
    {
        "name": "Coronel",
        "country": "Chile",
        "code": "CLCNL",
        "lat": -37.016666666666666,
        "lng": -73.15
    },
    {
        "name": "Iquique",
        "country": "Chile",
        "code": "CLIQQ",
        "lat": -20.216666666666665,
        "lng": -70.13333333333334
    },
    {
        "name": "Lirqu n",
        "country": "Chile",
        "code": "CLLQN",
        "lat": -36.7,
        "lng": -72.98333333333333
    },
    { "name": "Mejillones", "country": "Chile", "code": "CLMJS", "lat": -23.1, "lng": -70.45 },
    {
        "name": "Puerto Angamos",
        "country": "Chile",
        "code": "CLPAG",
        "lat": -23.083333333333332,
        "lng": -70.45
    },
    {
        "name": "Punta Arenas",
        "country": "Chile",
        "code": "CLPUQ",
        "lat": -53.13333333333333,
        "lng": -70.93333333333334
    },
    { "name": "San Antonio", "country": "Chile", "code": "CLSAI", "lat": -33.6, "lng": -71.6 },
    {
        "name": "San Vicente",
        "country": "Chile",
        "code": "CLSVE",
        "lat": -36.7,
        "lng": -73.13333333333334
    },
    {
        "name": "Valparaiso",
        "country": "Chile",
        "code": "CLVAP",
        "lat": -33.03333333333333,
        "lng": -71.63333333333334
    },
    {
        "name": "Caofeidian Pt",
        "country": "China",
        "code": "CNCFD",
        "lat": 38.95,
        "lng": 118.53333333333333
    },
    {
        "name": "DA CHAN BAY",
        "country": "China",
        "code": "CNDCB",
        "lat": 22.533333333333335,
        "lng": 113.86666666666666
    },
    {
        "name": "Dongguan Pt",
        "country": "China",
        "code": "CNDGG",
        "lat": 23.033333333333335,
        "lng": 113.75
    },
    {
        "name": "Dongjiangkou",
        "country": "China",
        "code": "CNDJK",
        "lat": 35.30888533158225,
        "lng": 119.52253982618285
    },
    {
        "name": "Fuqing",
        "country": "China",
        "code": "CNFQG",
        "lat": 25.716666666666665,
        "lng": 119.36666666666666
    },
    {
        "name": "Huizhou Pt",
        "country": "China",
        "code": "CNHUI",
        "lat": 23.083333333333332,
        "lng": 114.36666666666666
    },
    {
        "name": "Humen Pt",
        "country": "China",
        "code": "CNHMN",
        "lat": 22.833333333333332,
        "lng": 113.66666666666667
    },
    {
        "name": "Jiangyin",
        "country": "China",
        "code": "CNJGY",
        "lat": 25.466666666666665,
        "lng": 119.3
    },
    {
        "name": "Jinzhou Pt",
        "country": "China",
        "code": "CNJNZ",
        "lat": 41.11666666666667,
        "lng": 121.15
    },
    {
        "name": "Lianyungang",
        "country": "China",
        "code": "CNLYG",
        "lat": 34.71666666666667,
        "lng": 119.43333333333334
    },
    {
        "name": "Nansha Pt",
        "country": "China",
        "code": "CNNSA",
        "lat": 22.75,
        "lng": 113.58333333333333
    },
    {
        "name": "Nantong Pt",
        "country": "China",
        "code": "CNNTG",
        "lat": 32.016666666666666,
        "lng": 120.85
    },
    {
        "name": "Qinhuangdao Pt",
        "country": "China",
        "code": "CNSHP",
        "lat": 39.916666666666664,
        "lng": 119.58333333333333
    },
    {
        "name": "Quanzhou Pt",
        "country": "China",
        "code": "CNQZJ",
        "lat": 24.933333333333334,
        "lng": 118.6
    },
    {
        "name": "Rizhao Pt",
        "country": "China",
        "code": "CNRZH",
        "lat": 35.38333333333333,
        "lng": 119.53333333333333
    },
    {
        "name": "Shekou Pt",
        "country": "China",
        "code": "CNSHK",
        "lat": 22.483333333333334,
        "lng": 113.91666666666667
    },
    {
        "name": "Shidao Pt",
        "country": "China",
        "code": "CNSHD",
        "lat": 36.86666666666667,
        "lng": 122.43333333333334
    },
    {
        "name": "Waihai",
        "country": "China",
        "code": "CNWIH",
        "lat": 22.583333333333332,
        "lng": 113.13333333333334
    },
    {
        "name": "Weifang Pt",
        "country": "China",
        "code": "CNWEF",
        "lat": 36.71666666666667,
        "lng": 119.1
    },
    {
        "name": "Weihai",
        "country": "China",
        "code": "CNWEI",
        "lat": 37.516666666666666,
        "lng": 122.11666666666666
    },
    { "name": "Yangpu Pt", "country": "China", "code": "CNYPG", "lat": 19.7, "lng": 109.2 },
    {
        "name": "Yantian Pt",
        "country": "China",
        "code": "CNYTN",
        "lat": 26.85,
        "lng": 119.86666666666666
    },
    {
        "name": "Yingkou Pt",
        "country": "China",
        "code": "CNYIK",
        "lat": 40.65,
        "lng": 122.21666666666667
    },
    {
        "name": "Zhangjiagang",
        "country": "China",
        "code": "CNZJG",
        "lat": 31.866666666666667,
        "lng": 120.53333333333333
    },
    {
        "name": "Zhangzhou Pt",
        "country": "China",
        "code": "CNZZU",
        "lat": 24.516666666666666,
        "lng": 117.65
    },
    {
        "name": "Zhuhai Pt",
        "country": "China",
        "code": "CNZUH",
        "lat": 22.283333333333335,
        "lng": 113.56666666666666
    },
    {
        "name": "Leticia",
        "country": "Colombia",
        "code": "COLET",
        "lat": -4.216666666666667,
        "lng": -69.93333333333334
    },
    {
        "name": "Tol ",
        "country": "Colombia",
        "code": "COTLU",
        "lat": 9.533333333333333,
        "lng": -75.58333333333333
    },
    {
        "name": "Turbo",
        "country": "Colombia",
        "code": "COTRB",
        "lat": 8.083333333333334,
        "lng": -76.71666666666667
    },
    {
        "name": "Caldera",
        "country": "Costa Rica",
        "code": "CRCAL",
        "lat": 9.95,
        "lng": -84.71666666666667
    },
    {
        "name": "Mo n",
        "country": "Costa Rica",
        "code": "CRMOB",
        "lat": 10,
        "lng": -83.08333333333333
    },
    {
        "name": "Puerto Lim n",
        "country": "Costa Rica",
        "code": "CRLIO",
        "lat": 10,
        "lng": -83.03333333333333
    },
    { "name": "Mariel", "country": "Cuba", "code": "CUMAR", "lat": 23, "lng": -82.75 },
    {
        "name": "Mindelo",
        "country": "Cabo Verde",
        "code": "CVMIN",
        "lat": 16.883333333333333,
        "lng": -25
    },
    {
        "name": "Willemstad",
        "country": "Cura ao",
        "code": "CWWIL",
        "lat": 12.1,
        "lng": -68.91666666666667
    },
    {
        "name": "Flying Fish Cove",
        "country": "Christmas Island",
        "code": "CXFFC",
        "lat": -10.416666666666666,
        "lng": 105.71666666666667
    },
    {
        "name": "Limassol",
        "country": "Cyprus",
        "code": "CYLMS",
        "lat": 34.68333333333333,
        "lng": 33.05
    },
    {
        "name": "Brake",
        "country": "Germany",
        "code": "DEBKE",
        "lat": 53.333333333333336,
        "lng": 8.483333333333333
    },
    {
        "name": "Cuxhaven",
        "country": "Germany",
        "code": "DECUX",
        "lat": 53.88333333333333,
        "lng": 8.7
    },
    {
        "name": "Emden",
        "country": "Germany",
        "code": "DEEME",
        "lat": 53.36666666666667,
        "lng": 7.216666666666667
    },
    {
        "name": "Kiel",
        "country": "Germany",
        "code": "DEKEL",
        "lat": 54.333333333333336,
        "lng": 10.133333333333333
    },
    {
        "name": "Rostock",
        "country": "Germany",
        "code": "DERSK",
        "lat": 54.083333333333336,
        "lng": 12.133333333333333
    },
    {
        "name": "Wilhelmshaven",
        "country": "Germany",
        "code": "DEWVN",
        "lat": 53.516666666666666,
        "lng": 8.133333333333333
    },
    {
        "name": "Aarhus",
        "country": "Denmark",
        "code": "DKAAR",
        "lat": 56.15,
        "lng": 10.216666666666667
    },
    {
        "name": "K benhavn",
        "country": "Denmark",
        "code": "DKCPH",
        "lat": 55.666666666666664,
        "lng": 12.583333333333334
    },
    {
        "name": "Caucedo",
        "country": "Dominican Republic",
        "code": "DOCAU",
        "lat": 18.416666666666668,
        "lng": -69.63333333333334
    },
    {
        "name": "Manzanillo",
        "country": "Dominican Republic",
        "code": "DOMAN",
        "lat": 19.7,
        "lng": -71.75
    },
    { "name": "Alger (Algiers)", "country": "Algeria", "code": "DZALG", "lat": 36.75, "lng": 3.05 },
    {
        "name": "Arzew",
        "country": "Algeria",
        "code": "DZAZW",
        "lat": 35.86666666666667,
        "lng": -0.316666666666667
    },
    { "name": "Ghazaouet", "country": "Algeria", "code": "DZGHZ", "lat": 35.1, "lng": -1.85 },
    {
        "name": "Esmeraldas",
        "country": "Ecuador",
        "code": "ECESM",
        "lat": 0.983333333333333,
        "lng": -79.7
    },
    {
        "name": "Guayaquil",
        "country": "Ecuador",
        "code": "ECGYE",
        "lat": -2.166666666666667,
        "lng": -79.9
    },
    { "name": "Posorja", "country": "Ecuador", "code": "ECPSJ", "lat": -2.7, "lng": -80.25 },
    {
        "name": "Puerto Bol var",
        "country": "Ecuador",
        "code": "ECPBO",
        "lat": -3.266666666666667,
        "lng": -79.98333333333333
    },
    {
        "name": "Kunda",
        "country": "Estonia",
        "code": "EEKND",
        "lat": 59.516666666666666,
        "lng": 26.533333333333335
    },
    {
        "name": "Muuga",
        "country": "Estonia",
        "code": "EEMUG",
        "lat": 59.5,
        "lng": 24.966666666666665
    },
    { "name": "Paldiski", "country": "Estonia", "code": "EEPLA", "lat": 59.35, "lng": 24.05 },
    {
        "name": "Tallinn",
        "country": "Estonia",
        "code": "EETLL",
        "lat": 59.43333333333333,
        "lng": 24.733333333333334
    },
    {
        "name": "Dumyat (Damietta)",
        "country": "Egypt",
        "code": "EGDAM",
        "lat": 31.416666666666668,
        "lng": 31.816666666666666
    },
    {
        "name": "El Iskandariya (Alexandria)",
        "country": "Egypt",
        "code": "EGALY",
        "lat": 31.183333333333334,
        "lng": 29.916666666666668
    },
    { "name": "Sokhna Port", "country": "Egypt", "code": "EGSOK", "lat": 29.65, "lng": 32.35 },
    {
        "name": "Massawa (Mitsiwa)",
        "country": "Eritrea",
        "code": "ERMSW",
        "lat": 15.6,
        "lng": 39.45
    },
    {
        "name": "Almer a",
        "country": "Spain",
        "code": "ESLEI",
        "lat": 36.833333333333336,
        "lng": -2.45
    },
    {
        "name": "Bilbao",
        "country": "Spain",
        "code": "ESBIO",
        "lat": 43.25,
        "lng": -2.966666666666667
    },
    {
        "name": "Cartagena",
        "country": "Spain",
        "code": "ESCAR",
        "lat": 37.6,
        "lng": -0.983333333333333
    },
    {
        "name": "Castell n de la Plana",
        "country": "Spain",
        "code": "ESCAS",
        "lat": 39.983333333333334,
        "lng": -0.033333333333333
    },
    {
        "name": "Ferrol",
        "country": "Spain",
        "code": "ESFRO",
        "lat": 43.483333333333334,
        "lng": -8.25
    },
    {
        "name": "Gij n",
        "country": "Spain",
        "code": "ESGIJ",
        "lat": 43.53333333333333,
        "lng": -5.666666666666667
    },
    {
        "name": "Lanzarote",
        "country": "Spain",
        "code": "ESACE",
        "lat": 28.966666666666665,
        "lng": -13.533333333333333
    },
    {
        "name": "Las Palmas de Gran Canaria",
        "country": "Spain",
        "code": "ESLPA",
        "lat": 28.1,
        "lng": -15.416666666666666
    },
    {
        "name": "M laga",
        "country": "Spain",
        "code": "ESAGP",
        "lat": 36.71666666666667,
        "lng": -4.416666666666667
    },
    {
        "name": "Melilla",
        "country": "Spain",
        "code": "ESMLN",
        "lat": 35.31666666666667,
        "lng": -2.883333333333333
    },
    {
        "name": "Sagunto",
        "country": "Spain",
        "code": "ESSAG",
        "lat": 39.68333333333333,
        "lng": -0.266666666666667
    },
    {
        "name": "Santa Cruz de La Palma",
        "country": "Spain",
        "code": "ESSPC",
        "lat": 28.683333333333334,
        "lng": -17.766666666666666
    },
    {
        "name": "Villagarc a de Arosa",
        "country": "Spain",
        "code": "ESVIL",
        "lat": 42.6,
        "lng": -8.75
    },
    {
        "name": " bo (Turku)",
        "country": "Finland",
        "code": "FITKU",
        "lat": 60.45,
        "lng": 22.283333333333335
    },
    {
        "name": "Turku ( bo)",
        "country": "Finland",
        "code": "FITKU",
        "lat": 60.45,
        "lng": 22.283333333333335
    },
    {
        "name": "Bj rneborg (Pori)",
        "country": "Finland",
        "code": "FIPOR",
        "lat": 61.483333333333334,
        "lng": 21.8
    },
    {
        "name": "Pori (Bj rneborg)",
        "country": "Finland",
        "code": "FIPOR",
        "lat": 61.483333333333334,
        "lng": 21.8
    },
    {
        "name": "Fredrikshamn (Hamina)",
        "country": "Finland",
        "code": "FIHMN",
        "lat": 60.56666666666667,
        "lng": 27.2
    },
    {
        "name": "Hamina (Fredrikshamn)",
        "country": "Finland",
        "code": "FIHMN",
        "lat": 60.56666666666667,
        "lng": 27.2
    },
    {
        "name": "Jakobstad (Pietarsaari)",
        "country": "Finland",
        "code": "FIPRS",
        "lat": 63.68333333333333,
        "lng": 22.783333333333335
    },
    {
        "name": "Pietarsaari (Jakobstad)",
        "country": "Finland",
        "code": "FIPRS",
        "lat": 63.68333333333333,
        "lng": 22.783333333333335
    },
    {
        "name": "Karleby (Kokkola)",
        "country": "Finland",
        "code": "FIKOK",
        "lat": 63.833333333333336,
        "lng": 23.116666666666667
    },
    {
        "name": "Kokkola (Karleby)",
        "country": "Finland",
        "code": "FIKOK",
        "lat": 63.833333333333336,
        "lng": 23.116666666666667
    },
    {
        "name": "Kemi/Torne  (Kemi/Tornio)",
        "country": "Finland",
        "code": "FIKEM",
        "lat": 65.73333333333333,
        "lng": 24.566666666666666
    },
    {
        "name": "Kemi/Tornio (Kemi/Torne )",
        "country": "Finland",
        "code": "FIKEM",
        "lat": 65.73333333333333,
        "lng": 24.566666666666666
    },
    {
        "name": "Kotka",
        "country": "Finland",
        "code": "FIKTK",
        "lat": 60.46666666666667,
        "lng": 26.916666666666668
    },
    {
        "name": "Rauma (Raumo)",
        "country": "Finland",
        "code": "FIRAU",
        "lat": 61.13333333333333,
        "lng": 21.5
    },
    {
        "name": "Raumo (Rauma)",
        "country": "Finland",
        "code": "FIRAU",
        "lat": 61.13333333333333,
        "lng": 21.5
    },
    {
        "name": "Torne  (Tornio)",
        "country": "Finland",
        "code": "FITOR",
        "lat": 65.85,
        "lng": 24.183333333333334
    },
    {
        "name": "Tornio (Torne )",
        "country": "Finland",
        "code": "FITOR",
        "lat": 65.85,
        "lng": 24.183333333333334
    },
    {
        "name": "Lautoka",
        "country": "Fiji",
        "code": "FJLTK",
        "lat": -17.616666666666667,
        "lng": 177.45
    },
    {
        "name": "Suva",
        "country": "Fiji",
        "code": "FJSUV",
        "lat": -18.133333333333333,
        "lng": 178.45
    },
    {
        "name": "Kollafj rdur",
        "country": "Faroe Islands",
        "code": "FOKOL",
        "lat": 62.11666666666667,
        "lng": -6.883333333333333
    },
    {
        "name": "Thorshavn",
        "country": "Faroe Islands",
        "code": "FOTHO",
        "lat": 62.016666666666666,
        "lng": -6.766666666666667
    },
    {
        "name": "Bassens",
        "country": "France",
        "code": "FRBAS",
        "lat": 44.9,
        "lng": -0.516666666666667
    },
    {
        "name": "Brest",
        "country": "France",
        "code": "FRBES",
        "lat": 48.4,
        "lng": -4.483333333333333
    },
    {
        "name": "Dunkerque",
        "country": "France",
        "code": "FRDKK",
        "lat": 51.03333333333333,
        "lng": 2.383333333333333
    },
    {
        "name": "Fos-sur-Mer",
        "country": "France",
        "code": "FRFOS",
        "lat": 43.43333333333333,
        "lng": 4.933333333333334
    },
    {
        "name": "la Pallice",
        "country": "France",
        "code": "FRLPE",
        "lat": 46.166666666666664,
        "lng": -1.216666666666667
    },
    {
        "name": "La Rochelle",
        "country": "France",
        "code": "FRLRH",
        "lat": 46.166666666666664,
        "lng": -1.15
    },
    { "name": "Le Havre", "country": "France", "code": "FRLEH", "lat": 49.5, "lng": 0.1 },
    { "name": "Marseille", "country": "France", "code": "FRMRS", "lat": 43.3, "lng": 5.4 },
    {
        "name": "Montoir-de-Bretagne",
        "country": "France",
        "code": "FRMTX",
        "lat": 47.333333333333336,
        "lng": -2.15
    },
    {
        "name": "Port-Vendres",
        "country": "France",
        "code": "FRPOV",
        "lat": 42.516666666666666,
        "lng": 3.116666666666667
    },
    { "name": "Radicatel", "country": "France", "code": "FRRAD", "lat": 49.5, "lng": 0.5 },
    { "name": "Rouen", "country": "France", "code": "FRURO", "lat": 49.45, "lng": 1.1 },
    { "name": "S te", "country": "France", "code": "FRSET", "lat": 43.4, "lng": 3.7 },
    {
        "name": "Toulon",
        "country": "France",
        "code": "FRTLN",
        "lat": 43.11666666666667,
        "lng": 5.933333333333334
    },
    {
        "name": "Aberdeen",
        "country": "United Kingdom",
        "code": "GBABD",
        "lat": 57.13333333333333,
        "lng": -2.1
    },
    {
        "name": "Belfast",
        "country": "United Kingdom",
        "code": "GBBEL",
        "lat": 54.983333333333334,
        "lng": -5.916666666666667
    },
    {
        "name": "Grangemouth",
        "country": "United Kingdom",
        "code": "GBGRG",
        "lat": 56,
        "lng": -3.716666666666667
    },
    {
        "name": "Greenock",
        "country": "United Kingdom",
        "code": "GBGRK",
        "lat": 55.93333333333333,
        "lng": -4.75
    },
    {
        "name": "Hull",
        "country": "United Kingdom",
        "code": "GBHUL",
        "lat": 53.733333333333334,
        "lng": -0.316666666666667
    },
    {
        "name": "Immingham",
        "country": "United Kingdom",
        "code": "GBIMM",
        "lat": 53.6,
        "lng": -0.216666666666667
    },
    {
        "name": "Liverpool",
        "country": "United Kingdom",
        "code": "GBLIV",
        "lat": 53.416666666666664,
        "lng": -3
    },
    {
        "name": "London Gateway Port",
        "country": "United Kingdom",
        "code": "GBLGP",
        "lat": 51.5,
        "lng": 0.483333333333333
    },
    {
        "name": "Teesport",
        "country": "United Kingdom",
        "code": "GBTEE",
        "lat": 54.583333333333336,
        "lng": -1.15
    },
    {
        "name": "Tyne",
        "country": "United Kingdom",
        "code": "GBTYN",
        "lat": 55,
        "lng": -1.433333333333333
    },
    {
        "name": "D grad des Cannes",
        "country": "French Guiana",
        "code": "GFDDC",
        "lat": 4.85,
        "lng": -52.266666666666666
    },
    {
        "name": "Nuuk (Godthaab)",
        "country": "Greenland",
        "code": "GLGOH",
        "lat": 64.18333333333334,
        "lng": -51.75
    },
    {
        "name": "Point- -Pitre Apt",
        "country": "Guadeloupe",
        "code": "GPPTP",
        "lat": 16.266666666666666,
        "lng": -61.516666666666666
    },
    {
        "name": "Heraklion (Iraklion)",
        "country": "Greece",
        "code": "GRHER",
        "lat": 35.333333333333336,
        "lng": 25.166666666666668
    },
    {
        "name": "Iraklion (Heraklion)",
        "country": "Greece",
        "code": "GRHER",
        "lat": 35.333333333333336,
        "lng": 25.166666666666668
    },
    {
        "name": "Piraeus",
        "country": "Greece",
        "code": "GRPIR",
        "lat": 37.93333333333333,
        "lng": 23.616666666666667
    },
    {
        "name": "Thessalon ki",
        "country": "Greece",
        "code": "GRSKG",
        "lat": 40.63333333333333,
        "lng": 22.95
    },
    {
        "name": "V los",
        "country": "Greece",
        "code": "GRVOL",
        "lat": 39.36666666666667,
        "lng": 22.95
    },
    {
        "name": "Puerto Santo Tom s de Castilla",
        "country": "Guatemala",
        "code": "GTSTC",
        "lat": 15.7,
        "lng": -88.61666666666666
    },
    {
        "name": "Piti",
        "country": "Guam",
        "code": "GUPIT",
        "lat": 13.433333333333334,
        "lng": 144.68333333333334
    },
    {
        "name": "Bissau",
        "country": "Guinea-Bissau",
        "code": "GWOXB",
        "lat": 11.85,
        "lng": -15.583333333333334
    },
    {
        "name": "Ploce",
        "country": "Croatia",
        "code": "HRPLE",
        "lat": 43.05,
        "lng": 17.433333333333334
    },
    {
        "name": "Rijeka",
        "country": "Croatia",
        "code": "HRRJK",
        "lat": 45.333333333333336,
        "lng": 14.4
    },
    { "name": "Split", "country": "Croatia", "code": "HRSPU", "lat": 43.5, "lng": 16.45 },
    { "name": "Cap-Ha tien", "country": "Haiti", "code": "HTCAP", "lat": 19.75, "lng": -72.2 },
    {
        "name": "Lafiteau",
        "country": "Haiti",
        "code": "HTLFF",
        "lat": 18.483333333333334,
        "lng": -72.43333333333334
    },
    {
        "name": "Balikpapan",
        "country": "Indonesia",
        "code": "IDBPN",
        "lat": -1.283333333333333,
        "lng": 116.83333333333333
    },
    {
        "name": "Batam Island",
        "country": "Indonesia",
        "code": "IDBTM",
        "lat": 1.083333333333333,
        "lng": 104.03333333333333
    },
    {
        "name": "Benete",
        "country": "Indonesia",
        "code": "IDBEN",
        "lat": -8.866666666666667,
        "lng": 116.71666666666667
    },
    {
        "name": "Benoa",
        "country": "Indonesia",
        "code": "IDBOA",
        "lat": -8.766666666666667,
        "lng": 115.21666666666667
    },
    {
        "name": "Jakarta, Java",
        "country": "Indonesia",
        "code": "IDJKT",
        "lat": -6.133333333333334,
        "lng": 106.83333333333333
    },
    {
        "name": "Jayapura, Irian Jaya",
        "country": "Indonesia",
        "code": "IDDJJ",
        "lat": -2.533333333333333,
        "lng": 140.7
    },
    {
        "name": "Kumai",
        "country": "Indonesia",
        "code": "IDKUM",
        "lat": -2.733333333333333,
        "lng": 111.71666666666667
    },
    {
        "name": "Makassar",
        "country": "Indonesia",
        "code": "IDMAK",
        "lat": -5.116666666666666,
        "lng": 119.4
    },
    { "name": "Padang", "country": "Indonesia", "code": "IDPDG", "lat": -0.95, "lng": 100.35 },
    {
        "name": "Perawang",
        "country": "Indonesia",
        "code": "IDPER",
        "lat": 1.066666666666667,
        "lng": 102.86666666666666
    },
    {
        "name": "Semarang",
        "country": "Indonesia",
        "code": "IDSRG",
        "lat": -6.966666666666667,
        "lng": 110.48333333333333
    },
    {
        "name": "Surabaya",
        "country": "Indonesia",
        "code": "IDSUB",
        "lat": -7.233333333333333,
        "lng": 112.75
    },
    {
        "name": "Tanjungpinang",
        "country": "Indonesia",
        "code": "IDTNJ",
        "lat": 0.916666666666667,
        "lng": 104.45
    },
    { "name": "Timika", "country": "Indonesia", "code": "IDTMK", "lat": -4.75, "lng": 136.55 },
    {
        "name": "Tual",
        "country": "Indonesia",
        "code": "IDTUA",
        "lat": -5.633333333333333,
        "lng": 132.73333333333332
    },
    { "name": "Waterford", "country": "Ireland", "code": "IEWAT", "lat": 52.25, "lng": -7.1 },
    {
        "name": "Haifa",
        "country": "Israel",
        "code": "ILHFA",
        "lat": 32.8,
        "lng": 34.983333333333334
    },
    {
        "name": "Chennai (ex Madras)",
        "country": "India",
        "code": "INMAA",
        "lat": 13.083333333333334,
        "lng": 80.28333333333333
    },
    {
        "name": "Cochin",
        "country": "India",
        "code": "INCOK",
        "lat": 9.966666666666667,
        "lng": 76.23333333333333
    },
    {
        "name": "Hazira",
        "country": "India",
        "code": "INHZR",
        "lat": 21.09641041428134,
        "lng": 72.62343557464672
    },
    {
        "name": "Kandla",
        "country": "India",
        "code": "INIXY",
        "lat": 23.033333333333335,
        "lng": 70.21666666666667
    },
    {
        "name": "Kattupalli Port",
        "country": "India",
        "code": "INKTP",
        "lat": 13.3,
        "lng": 80.38333333333334
    },
    {
        "name": "Kolkata (ex Calcutta)",
        "country": "India",
        "code": "INCCU",
        "lat": 22.566666666666666,
        "lng": 88.35
    },
    {
        "name": "Marmagao (Marmugao)",
        "country": "India",
        "code": "INMRM",
        "lat": 15.4,
        "lng": 73.78333333333333
    },
    {
        "name": "Marmugao (Marmagao)",
        "country": "India",
        "code": "INMRM",
        "lat": 15.4,
        "lng": 73.78333333333333
    },
    {
        "name": "Mumbai (ex Bombay)",
        "country": "India",
        "code": "INBOM",
        "lat": 18.966666666666665,
        "lng": 72.81666666666666
    },
    {
        "name": "Paradip Garh",
        "country": "India",
        "code": "INPRT",
        "lat": 20.316666666666666,
        "lng": 86.61666666666666
    },
    {
        "name": "Pipavav (Victor) Port",
        "country": "India",
        "code": "INPAV",
        "lat": 20.966666666666665,
        "lng": 71.55
    },
    {
        "name": "Tuticorin",
        "country": "India",
        "code": "INTUT",
        "lat": 8.783333333333333,
        "lng": 78.13333333333334
    },
    { "name": "Visakhapatnam", "country": "India", "code": "INVTZ", "lat": 17.7, "lng": 83.3 },
    {
        "name": "Umm Qasr Port",
        "country": "Iraq",
        "code": "IQUQR",
        "lat": 30.033333333333335,
        "lng": 47.93333333333333
    },
    {
        "name": "Asaluyeh",
        "country": "Iran, Islamic Republic of",
        "code": "IRASA",
        "lat": 27.466666666666665,
        "lng": 52.6
    },
    {
        "name": "Bandar Abbas",
        "country": "Iran, Islamic Republic of",
        "code": "IRBND",
        "lat": 27.183333333333334,
        "lng": 56.266666666666666
    },
    {
        "name": "Bandar Khomeini",
        "country": "Iran, Islamic Republic of",
        "code": "IRBKM",
        "lat": 30.433333333333334,
        "lng": 49.1
    },
    {
        "name": "Bushehr",
        "country": "Iran, Islamic Republic of",
        "code": "IRBUZ",
        "lat": 28.966666666666665,
        "lng": 50.833333333333336
    },
    { "name": "Reykjav k", "country": "Iceland", "code": "ISREY", "lat": 64.15, "lng": -21.95 },
    {
        "name": "Ancona",
        "country": "Italy",
        "code": "ITAOI",
        "lat": 43.63333333333333,
        "lng": 13.5
    },
    { "name": "Bari", "country": "Italy", "code": "ITBRI", "lat": 41.13333333333333, "lng": 16.85 },
    {
        "name": "Cagliari",
        "country": "Italy",
        "code": "ITCAG",
        "lat": 39.21666666666667,
        "lng": 9.116666666666667
    },
    { "name": "Catania", "country": "Italy", "code": "ITCTA", "lat": 37.5, "lng": 15.1 },
    { "name": "Civitavecchia", "country": "Italy", "code": "ITCVV", "lat": 42.1, "lng": 11.8 },
    {
        "name": "Genova",
        "country": "Italy",
        "code": "ITGOA",
        "lat": 44.416666666666664,
        "lng": 8.95
    },
    {
        "name": "Gioia Tauro",
        "country": "Italy",
        "code": "ITGIT",
        "lat": 38.416666666666664,
        "lng": 15.9
    },
    {
        "name": "La Spezia",
        "country": "Italy",
        "code": "ITSPE",
        "lat": 44.11666666666667,
        "lng": 9.833333333333334
    },
    {
        "name": "Livorno",
        "country": "Italy",
        "code": "ITLIV",
        "lat": 43.55,
        "lng": 10.316666666666666
    },
    {
        "name": "Napoli",
        "country": "Italy",
        "code": "ITNAP",
        "lat": 40.833333333333336,
        "lng": 14.25
    },
    {
        "name": "Olbia",
        "country": "Italy",
        "code": "ITOLB",
        "lat": 40.916666666666664,
        "lng": 9.516666666666667
    },
    {
        "name": "Palermo",
        "country": "Italy",
        "code": "ITPMO",
        "lat": 38.11666666666667,
        "lng": 13.366666666666667
    },
    { "name": "Savona", "country": "Italy", "code": "ITSVN", "lat": 44.28333333333333, "lng": 8.5 },
    {
        "name": "Trapani",
        "country": "Italy",
        "code": "ITTPS",
        "lat": 38.016666666666666,
        "lng": 12.483333333333333
    },
    {
        "name": "Vado Ligure",
        "country": "Italy",
        "code": "ITVDL",
        "lat": 44.266666666666666,
        "lng": 8.45
    },
    {
        "name": "Venezia",
        "country": "Italy",
        "code": "ITVCE",
        "lat": 45.43333333333333,
        "lng": 12.333333333333334
    },
    {
        "name": "Al 'Aqabah",
        "country": "Jordan",
        "code": "JOAQJ",
        "lat": 29.533333333333335,
        "lng": 35
    },
    {
        "name": "Hakata",
        "country": "Japan",
        "code": "JPHTD",
        "lat": 34.18333333333333,
        "lng": 133.1
    },
    { "name": "Isa", "country": "Japan", "code": "JPISS", "lat": 32.05, "lng": 130.6 },
    {
        "name": "Kitakyushu",
        "country": "Japan",
        "code": "JPKKJ",
        "lat": 33.833333333333336,
        "lng": 130.83333333333334
    },
    {
        "name": "Kobe",
        "country": "Japan",
        "code": "JPUKB",
        "lat": 34.68333333333333,
        "lng": 135.16666666666666
    },
    {
        "name": "Mitajiri",
        "country": "Japan",
        "code": "JPMJR",
        "lat": 34.03333333333333,
        "lng": 131.58333333333334
    },
    {
        "name": "Moji/Kitakyushu",
        "country": "Japan",
        "code": "JPMOJ",
        "lat": 33.9,
        "lng": 130.96666666666667
    },
    {
        "name": "Osaka",
        "country": "Japan",
        "code": "JPOSA",
        "lat": 34.666666666666664,
        "lng": 135.5
    },
    {
        "name": "Satsumasendai",
        "country": "Japan",
        "code": "JPSEN",
        "lat": 31.816666666666666,
        "lng": 130.25
    },
    {
        "name": "Tokyo",
        "country": "Japan",
        "code": "JPTYO",
        "lat": 35.68333333333333,
        "lng": 139.75
    },
    { "name": "Yokohama", "country": "Japan", "code": "JPYOK", "lat": 35.45, "lng": 139.65 },
    {
        "name": "K mp ng Sa m",
        "country": "Cambodia",
        "code": "KHKOS",
        "lat": 10.6,
        "lng": 103.51666666666667
    },
    {
        "name": "Mutsamudu, Anjouan",
        "country": "Comoros",
        "code": "KMMUT",
        "lat": -12.15,
        "lng": 44.38333333333333
    },
    {
        "name": "Charlestown",
        "country": "Saint Kitts and Nevis",
        "code": "KNCHA",
        "lat": 17.133333333333333,
        "lng": -62.61666666666667
    },
    {
        "name": "Busan",
        "country": "Korea, Republic of",
        "code": "KRPUS",
        "lat": 35.13333333333333,
        "lng": 129.05
    },
    {
        "name": "Daesan/Seosan",
        "country": "Korea, Republic of",
        "code": "KRTSN",
        "lat": 37,
        "lng": 126.36666666666666
    },
    {
        "name": "Dangjin",
        "country": "Korea, Republic of",
        "code": "KRTJI",
        "lat": 36.96666666666667,
        "lng": 126.78333333333333
    },
    {
        "name": "Gunsan",
        "country": "Korea, Republic of",
        "code": "KRKUV",
        "lat": 35.983333333333334,
        "lng": 126.71666666666667
    },
    {
        "name": "Gwangyang",
        "country": "Korea, Republic of",
        "code": "KRKAN",
        "lat": 34.93333333333333,
        "lng": 127.7
    },
    {
        "name": "Incheon",
        "country": "Korea, Republic of",
        "code": "KRINC",
        "lat": 37.45,
        "lng": 126.61666666666666
    },
    {
        "name": "Masan",
        "country": "Korea, Republic of",
        "code": "KRMAS",
        "lat": 35.2,
        "lng": 128.56666666666666
    },
    {
        "name": "Mokpo",
        "country": "Korea, Republic of",
        "code": "KRMOK",
        "lat": 34.8,
        "lng": 126.38333333333334
    },
    {
        "name": "Pohang",
        "country": "Korea, Republic of",
        "code": "KRKPO",
        "lat": 36.03333333333333,
        "lng": 129.36666666666667
    },
    {
        "name": "Pyeongtaek",
        "country": "Korea, Republic of",
        "code": "KRPTK",
        "lat": 36.96666666666667,
        "lng": 127.1
    },
    {
        "name": "Ulsan",
        "country": "Korea, Republic of",
        "code": "KRUSN",
        "lat": 35.53333333333333,
        "lng": 129.31666666666666
    },
    {
        "name": "Shuaiba",
        "country": "Kuwait",
        "code": "KWSAA",
        "lat": 29.033333333333335,
        "lng": 48.13333333333333
    },
    {
        "name": "Shuwaikh",
        "country": "Kuwait",
        "code": "KWSWK",
        "lat": 29.35,
        "lng": 47.93333333333333
    },
    {
        "name": "Georgetown, Grand Cayman",
        "country": "Cayman Islands",
        "code": "KYGEC",
        "lat": 19.3,
        "lng": -81.38333333333334
    },
    {
        "name": "Beirut",
        "country": "Lebanon",
        "code": "LBBEY",
        "lat": 33.833333333333336,
        "lng": 35.483333333333334
    },
    {
        "name": "Castries",
        "country": "Saint Lucia",
        "code": "LCCAS",
        "lat": 14.016666666666667,
        "lng": -60.96666666666667
    },
    {
        "name": "Colombo",
        "country": "Sri Lanka",
        "code": "LKCMB",
        "lat": 6.916666666666667,
        "lng": 79.85
    },
    { "name": "Monrovia", "country": "Liberia", "code": "LRMLW", "lat": 6.3, "lng": -10.8 },
    {
        "name": "Al Khums",
        "country": "Libya",
        "code": "LYKHO",
        "lat": 32.65,
        "lng": 14.266666666666667
    },
    {
        "name": "Casablanca",
        "country": "Morocco",
        "code": "MACAS",
        "lat": 33.583333333333336,
        "lng": -7.6
    },
    {
        "name": "Giurgiulesti",
        "country": "Moldova, Republic of",
        "code": "MDGIU",
        "lat": 45.46666666666667,
        "lng": 28.183333333333334
    },
    {
        "name": "Bar",
        "country": "Montenegro",
        "code": "MEBAR",
        "lat": 42.083333333333336,
        "lng": 19.083333333333332
    },
    {
        "name": "Ehoala",
        "country": "Madagascar",
        "code": "MGEHL",
        "lat": -25.066666666666666,
        "lng": 46.95
    },
    {
        "name": "Nosy-Be",
        "country": "Madagascar",
        "code": "MGNOS",
        "lat": -13.333333333333334,
        "lng": 48.25
    },
    {
        "name": "Majuro",
        "country": "Marshall Islands",
        "code": "MHMAJ",
        "lat": 7.1,
        "lng": 171.38333333333333
    },
    { "name": "Thilawa", "country": "Myanmar", "code": "MMTLA", "lat": 16.65, "lng": 96.25 },
    { "name": "Thilawa", "country": "Myanmar", "code": "MMTLA", "lat": 16.65, "lng": 96.25 },
    {
        "name": "Marsaxlokk",
        "country": "Malta",
        "code": "MTMAR",
        "lat": 35.833333333333336,
        "lng": 14.533333333333333
    },
    {
        "name": "Port Mathurin",
        "country": "Mauritius",
        "code": "MUPMA",
        "lat": -19.683333333333334,
        "lng": 63.416666666666664
    },
    {
        "name": "Male",
        "country": "Maldives",
        "code": "MVMLE",
        "lat": 4.166666666666667,
        "lng": 73.5
    },
    {
        "name": "Altamira",
        "country": "Mexico",
        "code": "MXATM",
        "lat": 22.4,
        "lng": -97.91666666666667
    },
    {
        "name": "Coatzacoalcos",
        "country": "Mexico",
        "code": "MXCOA",
        "lat": 18.133333333333333,
        "lng": -94.4
    },
    { "name": "Ensenada", "country": "Mexico", "code": "MXESE", "lat": 31.85, "lng": -116.6 },
    {
        "name": "Guaymas",
        "country": "Mexico",
        "code": "MXGYM",
        "lat": 27.916666666666668,
        "lng": -110.88333333333334
    },
    {
        "name": "L zaro C rdenas",
        "country": "Mexico",
        "code": "MXLZC",
        "lat": 17.95,
        "lng": -102.18333333333334
    },
    { "name": "Manzanillo", "country": "Mexico", "code": "MXZLO", "lat": 19.05, "lng": -104.3 },
    { "name": "Mazatlan", "country": "Mexico", "code": "MXMZT", "lat": 23.4, "lng": -106.4 },
    {
        "name": "Paraiso",
        "country": "Mexico",
        "code": "MXPRO",
        "lat": 18.183333333333334,
        "lng": -92.2
    },
    {
        "name": "Puerto Madero",
        "country": "Mexico",
        "code": "MXPMD",
        "lat": 14.716666666666667,
        "lng": -92.41666666666667
    },
    {
        "name": "Puerto Morelos",
        "country": "Mexico",
        "code": "MXPMS",
        "lat": 20.833333333333332,
        "lng": -86.86666666666666
    },
    {
        "name": "Tampico",
        "country": "Mexico",
        "code": "MXTAM",
        "lat": 22.25,
        "lng": -97.86666666666666
    },
    { "name": "Tuxpan", "country": "Mexico", "code": "MXTUX", "lat": 20.95, "lng": -97.4 },
    {
        "name": "Veracruz",
        "country": "Mexico",
        "code": "MXVER",
        "lat": 19.2,
        "lng": -96.08333333333333
    },
    {
        "name": "Penang (Georgetown)",
        "country": "Malaysia",
        "code": "MYPEN",
        "lat": 5.416666666666667,
        "lng": 100.31666666666666
    },
    {
        "name": "Port Klang (Pelabuhan Klang)",
        "country": "Malaysia",
        "code": "MYPKG",
        "lat": 3,
        "lng": 101.4
    },
    {
        "name": "Tanjung Pelepas",
        "country": "Malaysia",
        "code": "MYTPP",
        "lat": 1.366666666666667,
        "lng": 103.55
    },
    {
        "name": "L deritz",
        "country": "Namibia",
        "code": "NALUD",
        "lat": -26.65,
        "lng": 15.166666666666666
    },
    {
        "name": "Noum a",
        "country": "New Caledonia",
        "code": "NCNOU",
        "lat": -22.266666666666666,
        "lng": 166.45
    },
    {
        "name": "Noum a",
        "country": "New Caledonia",
        "code": "NCNOU",
        "lat": -22.266666666666666,
        "lng": 166.45
    },
    { "name": "Lekki", "country": "Nigeria", "code": "NGLKK", "lat": 6.45, "lng": 3.1 },
    {
        "name": "Onne",
        "country": "Nigeria",
        "code": "NGONN",
        "lat": 4.716666666666667,
        "lng": 7.15
    },
    {
        "name": "Rama",
        "country": "Nicaragua",
        "code": "NIRAM",
        "lat": 12.15,
        "lng": -84.21666666666667
    },
    {
        "name": "Amsterdam",
        "country": "Netherlands",
        "code": "NLAMS",
        "lat": 52.4,
        "lng": 4.816666666666666
    },
    {
        "name": "Botlek",
        "country": "Netherlands",
        "code": "NLBOT",
        "lat": 51.88333333333333,
        "lng": 4.283333333333333
    },
    {
        "name": "IJmuiden/Velsen",
        "country": "Netherlands",
        "code": "NLIJM",
        "lat": 52.46666666666667,
        "lng": 4.6
    },
    {
        "name": "Moerdijk",
        "country": "Netherlands",
        "code": "NLMOE",
        "lat": 51.68333333333333,
        "lng": 4.566666666666666
    },
    {
        "name": "Rotterdam",
        "country": "Netherlands",
        "code": "NLRTM",
        "lat": 51.916666666666664,
        "lng": 4.5
    },
    {
        "name": "Terneuzen",
        "country": "Netherlands",
        "code": "NLTNZ",
        "lat": 51.46666666666667,
        "lng": 3.816666666666666
    },
    { "name": "Vlissingen", "country": "Netherlands", "code": "NLVLI", "lat": 51.45, "lng": 3.7 },
    {
        "name": " lesund",
        "country": "Norway",
        "code": "NOAES",
        "lat": 62.46666666666667,
        "lng": 6.15
    },
    {
        "name": " rdalstangen",
        "country": "Norway",
        "code": "NOARD",
        "lat": 61.233333333333334,
        "lng": 7.7
    },
    {
        "name": "Aver y",
        "country": "Norway",
        "code": "NOAVE",
        "lat": 63.05,
        "lng": 7.666666666666667
    },
    {
        "name": "Bergen",
        "country": "Norway",
        "code": "NOBGO",
        "lat": 60.38333333333333,
        "lng": 5.316666666666666
    },
    {
        "name": "Bod ",
        "country": "Norway",
        "code": "NOBOO",
        "lat": 67.28333333333333,
        "lng": 14.366666666666667
    },
    { "name": "Brevik", "country": "Norway", "code": "NOBVK", "lat": 59.05, "lng": 9.7 },
    {
        "name": "Drammen",
        "country": "Norway",
        "code": "NODRM",
        "lat": 59.733333333333334,
        "lng": 10.233333333333333
    },
    { "name": "Egersund", "country": "Norway", "code": "NOEGE", "lat": 58.45, "lng": 6 },
    {
        "name": "Flor ",
        "country": "Norway",
        "code": "NOFRO",
        "lat": 61.6,
        "lng": 5.016666666666667
    },
    {
        "name": "Fredrikstad",
        "country": "Norway",
        "code": "NOFRK",
        "lat": 59.2,
        "lng": 10.916666666666666
    },
    { "name": "Fusa", "country": "Norway", "code": "NOFUS", "lat": 60.2, "lng": 5.616666666666667 },
    {
        "name": "Glomfjord",
        "country": "Norway",
        "code": "NOGLO",
        "lat": 66.8,
        "lng": 13.933333333333334
    },
    {
        "name": "Hammerfest",
        "country": "Norway",
        "code": "NOHFT",
        "lat": 70.65,
        "lng": 23.666666666666668
    },
    {
        "name": "Harstad",
        "country": "Norway",
        "code": "NOHRD",
        "lat": 68.78333333333333,
        "lng": 16.533333333333335
    },
    { "name": "Haugesund", "country": "Norway", "code": "NOHAU", "lat": 59.4, "lng": 5.25 },
    {
        "name": "H vik",
        "country": "Norway",
        "code": "NOHVI",
        "lat": 59.3,
        "lng": 5.316666666666666
    },
    {
        "name": "Holla",
        "country": "Norway",
        "code": "NOHLA",
        "lat": 59.6,
        "lng": 9.183333333333334
    },
    {
        "name": "H yanger",
        "country": "Norway",
        "code": "NOHYR",
        "lat": 61.21666666666667,
        "lng": 6.05
    },
    {
        "name": "Hus y - T nsberg",
        "country": "Norway",
        "code": "NOHOY",
        "lat": 59.233333333333334,
        "lng": 10.45
    },
    {
        "name": "Ikornnes",
        "country": "Norway",
        "code": "NOIKR",
        "lat": 62.38333333333333,
        "lng": 6.55
    },
    {
        "name": "Kristiansand",
        "country": "Norway",
        "code": "NOKRS",
        "lat": 58.13333333333333,
        "lng": 7.983333333333333
    },
    {
        "name": "Larvik",
        "country": "Norway",
        "code": "NOLAR",
        "lat": 59.03333333333333,
        "lng": 10.016666666666667
    },
    { "name": "M l y", "country": "Norway", "code": "NOMAY", "lat": 61.93333333333333, "lng": 5.1 },
    {
        "name": "Molde",
        "country": "Norway",
        "code": "NOMOL",
        "lat": 62.733333333333334,
        "lng": 7.15
    },
    {
        "name": "Mosj en",
        "country": "Norway",
        "code": "NOMJF",
        "lat": 65.83333333333333,
        "lng": 13.2
    },
    {
        "name": "Moss",
        "country": "Norway",
        "code": "NOMSS",
        "lat": 59.416666666666664,
        "lng": 10.65
    },
    {
        "name": "Odda",
        "country": "Norway",
        "code": "NOODD",
        "lat": 60.06666666666667,
        "lng": 6.533333333333333
    },
    {
        "name": "Orkanger",
        "country": "Norway",
        "code": "NOORK",
        "lat": 63.31666666666667,
        "lng": 9.833333333333334
    },
    {
        "name": "Oslo",
        "country": "Norway",
        "code": "NOOSL",
        "lat": 59.9,
        "lng": 10.733333333333333
    },
    {
        "name": "Salten",
        "country": "Norway",
        "code": "NOSAT",
        "lat": 67.36666666666666,
        "lng": 15.583333333333334
    },
    {
        "name": "Stavanger",
        "country": "Norway",
        "code": "NOSVG",
        "lat": 58.96666666666667,
        "lng": 5.75
    },
    {
        "name": "Stokmarknes",
        "country": "Norway",
        "code": "NOSKN",
        "lat": 68.56666666666666,
        "lng": 14.9
    },
    {
        "name": "Sunndals ra",
        "country": "Norway",
        "code": "NOSUN",
        "lat": 62.666666666666664,
        "lng": 8.55
    },
    {
        "name": "Svelgen",
        "country": "Norway",
        "code": "NOSVE",
        "lat": 61.766666666666666,
        "lng": 5.283333333333333
    },
    {
        "name": "Svolv r",
        "country": "Norway",
        "code": "NOSVJ",
        "lat": 68.21666666666667,
        "lng": 14.55
    },
    {
        "name": "Tananger",
        "country": "Norway",
        "code": "NOTAE",
        "lat": 58.916666666666664,
        "lng": 5.583333333333333
    },
    {
        "name": "Troms ",
        "country": "Norway",
        "code": "NOTOS",
        "lat": 69.66666666666667,
        "lng": 18.966666666666665
    },
    {
        "name": "Trondheim",
        "country": "Norway",
        "code": "NOTRD",
        "lat": 63.43333333333333,
        "lng": 10.4
    },
    {
        "name": "Nauru Island",
        "country": "Nauru",
        "code": "NRINU",
        "lat": -0.55,
        "lng": 166.91666666666666
    },
    {
        "name": "Auckland",
        "country": "New Zealand",
        "code": "NZAKL",
        "lat": -36.833333333333336,
        "lng": 174.8
    },
    {
        "name": "Bluff",
        "country": "New Zealand",
        "code": "NZBLU",
        "lat": -46.6,
        "lng": 168.31666666666666
    },
    {
        "name": "Lyttelton",
        "country": "New Zealand",
        "code": "NZLYT",
        "lat": -43.6,
        "lng": 172.71666666666667
    },
    {
        "name": "Marsden Point",
        "country": "New Zealand",
        "code": "NZMAP",
        "lat": -35.833333333333336,
        "lng": 174.5
    },
    {
        "name": "Napier",
        "country": "New Zealand",
        "code": "NZNPE",
        "lat": -39.46666666666667,
        "lng": 176.9
    },
    {
        "name": "Nelson",
        "country": "New Zealand",
        "code": "NZNSN",
        "lat": -41.25,
        "lng": 173.26666666666668
    },
    {
        "name": "Port Chalmers",
        "country": "New Zealand",
        "code": "NZPOE",
        "lat": -45.81666666666667,
        "lng": 170.6
    },
    {
        "name": "Tauranga",
        "country": "New Zealand",
        "code": "NZTRG",
        "lat": -37.68333333333333,
        "lng": 176.16666666666666
    },
    {
        "name": "Timaru",
        "country": "New Zealand",
        "code": "NZTIU",
        "lat": -44.38333333333333,
        "lng": 171.25
    },
    {
        "name": "Wellington",
        "country": "New Zealand",
        "code": "NZWLG",
        "lat": -41.266666666666666,
        "lng": 174.78333333333333
    },
    {
        "name": "Col n",
        "country": "Panama",
        "code": "PAONX",
        "lat": 9.35,
        "lng": -79.86666666666666
    },
    { "name": "Crist bal", "country": "Panama", "code": "PACTB", "lat": 9.35, "lng": -79.9 },
    {
        "name": "Panam , Ciudad de",
        "country": "Panama",
        "code": "PAPTY",
        "lat": 8.966666666666667,
        "lng": -79.53333333333333
    },
    {
        "name": "Rodman",
        "country": "Panama",
        "code": "PAROD",
        "lat": 8.95,
        "lng": -79.56666666666666
    },
    {
        "name": "Bora Bora",
        "country": "French Polynesia",
        "code": "PFBOB",
        "lat": -16.45,
        "lng": -151.75
    },
    {
        "name": "Papeete",
        "country": "French Polynesia",
        "code": "PFPPT",
        "lat": -17.55,
        "lng": -149.61666666666667
    },
    {
        "name": "Madang",
        "country": "Papua New Guinea",
        "code": "PGMAG",
        "lat": -5.216666666666667,
        "lng": 145.78333333333333
    },
    {
        "name": "Motukea Island",
        "country": "Papua New Guinea",
        "code": "PGMTK",
        "lat": -9.433333333333334,
        "lng": 147.1
    },
    {
        "name": "Batangas/Luzon",
        "country": "Philippines",
        "code": "PHBTG",
        "lat": 13.75,
        "lng": 121.05
    },
    {
        "name": "General Santos",
        "country": "Philippines",
        "code": "PHGES",
        "lat": 6.116666666666666,
        "lng": 125.15
    },
    {
        "name": "Tagoloan",
        "country": "Philippines",
        "code": "PHTGO",
        "lat": 8.533333333333333,
        "lng": 124.75
    },
    { "name": "Gdynia", "country": "Poland", "code": "PLGDY", "lat": 54.5, "lng": 18.55 },
    { "name": "Swinoujscie", "country": "Poland", "code": "PLSWI", "lat": 53.9, "lng": 14.25 },
    {
        "name": "San Juan",
        "country": "Puerto Rico",
        "code": "PRSJU",
        "lat": 18.45,
        "lng": -66.08333333333333
    },
    {
        "name": "Cani al",
        "country": "Portugal",
        "code": "PTCNL",
        "lat": 32.733333333333334,
        "lng": -16.733333333333334
    },
    {
        "name": "Figueira da Foz",
        "country": "Portugal",
        "code": "PTFDF",
        "lat": 40.15,
        "lng": -8.866666666666667
    },
    {
        "name": "Horta",
        "country": "Portugal",
        "code": "PTHOR",
        "lat": 38.53333333333333,
        "lng": -28.633333333333333
    },
    {
        "name": "Leix es",
        "country": "Portugal",
        "code": "PTLEI",
        "lat": 41.18333333333333,
        "lng": -8.683333333333334
    },
    {
        "name": "Lisboa",
        "country": "Portugal",
        "code": "PTLIS",
        "lat": 38.71666666666667,
        "lng": -9.133333333333333
    },
    {
        "name": "Pico",
        "country": "Portugal",
        "code": "PTPIC",
        "lat": 41.68333333333333,
        "lng": -8.416666666666666
    },
    {
        "name": "Ponta Delgada",
        "country": "Portugal",
        "code": "PTPDL",
        "lat": 37.733333333333334,
        "lng": -25.666666666666668
    },
    {
        "name": "Porto Santo Island",
        "country": "Portugal",
        "code": "PTPXO",
        "lat": 33.06666666666667,
        "lng": -16.333333333333332
    },
    {
        "name": "Praia da Graciosa",
        "country": "Portugal",
        "code": "PTPRG",
        "lat": 39.05,
        "lng": -27.966666666666665
    },
    {
        "name": "Praia da Vit ria",
        "country": "Portugal",
        "code": "PTPRV",
        "lat": 38.733333333333334,
        "lng": -27.066666666666666
    },
    {
        "name": "Santa Cruz das Flores",
        "country": "Portugal",
        "code": "PTSCF",
        "lat": 39.45,
        "lng": -31.116666666666667
    },
    {
        "name": "Set bal",
        "country": "Portugal",
        "code": "PTSET",
        "lat": 38.53333333333333,
        "lng": -8.9
    },
    {
        "name": "Sines",
        "country": "Portugal",
        "code": "PTSIE",
        "lat": 37.95,
        "lng": -8.866666666666667
    },
    {
        "name": "Velas",
        "country": "Portugal",
        "code": "PTVEL",
        "lat": 38.68333333333333,
        "lng": -28.216666666666665
    },
    {
        "name": "Vila do Porto",
        "country": "Portugal",
        "code": "PTVDP",
        "lat": 36.93333333333333,
        "lng": -25.15
    },
    {
        "name": "Asunci n",
        "country": "Paraguay",
        "code": "PYASU",
        "lat": -25.266666666666666,
        "lng": -57.666666666666664
    },
    {
        "name": "BGN/PCGN1956 - HAMAD",
        "country": "Qatar",
        "code": "QAHMD",
        "lat": 25,
        "lng": 51.61666666666667
    },
    {
        "name": "Mesaieed",
        "country": "Qatar",
        "code": "QAMES",
        "lat": 25.633333333333333,
        "lng": 51.916666666666664
    },
    {
        "name": "Constanta",
        "country": "Romania",
        "code": "ROCND",
        "lat": 44.18333333333333,
        "lng": 28.65
    },
    {
        "name": "Lomonosov",
        "country": "Russian Federation",
        "code": "RUBRK",
        "lat": 59.9,
        "lng": 29.733333333333334
    },
    {
        "name": "Novorossiysk",
        "country": "Russian Federation",
        "code": "RUNVS",
        "lat": 44.71666666666667,
        "lng": 37.766666666666666
    },
    {
        "name": "Saint Petersburg (ex Leningrad)",
        "country": "Russian Federation",
        "code": "RULED",
        "lat": 59.88333333333333,
        "lng": 30.25
    },
    {
        "name": "Ust'-Luga",
        "country": "Russian Federation",
        "code": "RUULU",
        "lat": 59.666666666666664,
        "lng": 28.316666666666666
    },
    {
        "name": "Vostochnyy Port",
        "country": "Russian Federation",
        "code": "RUVYP",
        "lat": 42.766666666666666,
        "lng": 133.05
    },
    {
        "name": "Zarubino",
        "country": "Russian Federation",
        "code": "RUZAR",
        "lat": 42.61666666666667,
        "lng": 131.08333333333334
    },
    {
        "name": "Ad Dammam",
        "country": "Saudi Arabia",
        "code": "SADMM",
        "lat": 26.416666666666668,
        "lng": 50.1
    },
    {
        "name": "Jeddah",
        "country": "Saudi Arabia",
        "code": "SAJED",
        "lat": 21.533333333333335,
        "lng": 39.166666666666664
    },
    {
        "name": "King Abdullah City",
        "country": "Saudi Arabia",
        "code": "SAKAC",
        "lat": 22.4,
        "lng": 39.083333333333336
    },
    {
        "name": "Yanbu al-Bahr",
        "country": "Saudi Arabia",
        "code": "SAYNB",
        "lat": 24.083333333333332,
        "lng": 38.03333333333333
    },
    {
        "name": " hus",
        "country": "Sweden",
        "code": "SEAHU",
        "lat": 55.916666666666664,
        "lng": 14.283333333333333
    },
    {
        "name": "G vle",
        "country": "Sweden",
        "code": "SEGVX",
        "lat": 60.666666666666664,
        "lng": 17.166666666666668
    },
    {
        "name": "G teborg",
        "country": "Sweden",
        "code": "SEGOT",
        "lat": 57.71666666666667,
        "lng": 11.966666666666667
    },
    {
        "name": "Halmstad",
        "country": "Sweden",
        "code": "SEHAD",
        "lat": 56.666666666666664,
        "lng": 12.85
    },
    {
        "name": "Karlstad",
        "country": "Sweden",
        "code": "SEKSD",
        "lat": 59.36666666666667,
        "lng": 13.5
    },
    {
        "name": "Norrk ping",
        "country": "Sweden",
        "code": "SENRK",
        "lat": 58.6,
        "lng": 16.183333333333334
    },
    {
        "name": "Oskarshamn",
        "country": "Sweden",
        "code": "SEOSK",
        "lat": 57.266666666666666,
        "lng": 16.433333333333334
    },
    {
        "name": "Oxel sund",
        "country": "Sweden",
        "code": "SEOXE",
        "lat": 58.666666666666664,
        "lng": 17.1
    },
    {
        "name": "Pite ",
        "country": "Sweden",
        "code": "SEPIT",
        "lat": 65.33333333333333,
        "lng": 21.5
    },
    {
        "name": "S dert lje",
        "country": "Sweden",
        "code": "SESOE",
        "lat": 59.2,
        "lng": 17.616666666666667
    },
    {
        "name": "Stockholm",
        "country": "Sweden",
        "code": "SESTO",
        "lat": 59.333333333333336,
        "lng": 18.05
    },
    {
        "name": "Sundsvall",
        "country": "Sweden",
        "code": "SESDL",
        "lat": 62.38333333333333,
        "lng": 17.3
    },
    {
        "name": "Ume ",
        "country": "Sweden",
        "code": "SEUME",
        "lat": 63.833333333333336,
        "lng": 20.25
    },
    {
        "name": "V ster s",
        "country": "Sweden",
        "code": "SEVST",
        "lat": 59.61666666666667,
        "lng": 16.55
    },
    {
        "name": "Latakia",
        "country": "Syrian Arab Republic",
        "code": "SYLTK",
        "lat": 35.516666666666666,
        "lng": 35.78333333333333
    },
    {
        "name": "Tartus",
        "country": "Syrian Arab Republic",
        "code": "SYTTS",
        "lat": 34.9,
        "lng": 35.9
    },
    {
        "name": "Bangkok",
        "country": "Thailand",
        "code": "THBKK",
        "lat": 13.75,
        "lng": 100.51666666666667
    },
    {
        "name": "Laem Chabang",
        "country": "Thailand",
        "code": "THLCH",
        "lat": 13.083333333333334,
        "lng": 100.88333333333334
    },
    {
        "name": "Phuket International Apt",
        "country": "Thailand",
        "code": "THHKT",
        "lat": 8.116666666666667,
        "lng": 98.31666666666666
    },
    {
        "name": "Sahathai Coastal Seaport",
        "country": "Thailand",
        "code": "THSCS",
        "lat": 13.65,
        "lng": 100.53333333333333
    },
    {
        "name": "Dili",
        "country": "Timor-Leste",
        "code": "TLDIL",
        "lat": -8.55,
        "lng": 125.56666666666666
    },
    {
        "name": "Nuku'alofa",
        "country": "Tonga",
        "code": "TOTBU",
        "lat": -21.133333333333333,
        "lng": -175.2
    },
    {
        "name": "Ambarli",
        "country": "Turkey",
        "code": "TRPAM",
        "lat": 41.03333333333333,
        "lng": 39.166666666666664
    },
    {
        "name": "Antalya",
        "country": "Turkey",
        "code": "TRAYT",
        "lat": 36.833333333333336,
        "lng": 30.6
    },
    {
        "name": "Bandirma",
        "country": "Turkey",
        "code": "TRBDM",
        "lat": 40.35,
        "lng": 27.966666666666665
    },
    { "name": "Eregli", "country": "Turkey", "code": "TRELI", "lat": 37.5, "lng": 34.05 },
    {
        "name": "Evyap Port /Kocaeli",
        "country": "Turkey",
        "code": "TREYP",
        "lat": 40.766666666666666,
        "lng": 29.7
    },
    {
        "name": "Gebze",
        "country": "Turkey",
        "code": "TRGEB",
        "lat": 40.78333333333333,
        "lng": 29.416666666666668
    },
    {
        "name": "Gemlik",
        "country": "Turkey",
        "code": "TRGEM",
        "lat": 40.416666666666664,
        "lng": 29.15
    },
    {
        "name": "Iskenderun",
        "country": "Turkey",
        "code": "TRISK",
        "lat": 36.583333333333336,
        "lng": 36.166666666666664
    },
    {
        "name": "Izmir",
        "country": "Turkey",
        "code": "TRIZM",
        "lat": 38.416666666666664,
        "lng": 27.15
    },
    {
        "name": "Izmit",
        "country": "Turkey",
        "code": "TRIZT",
        "lat": 40.78333333333333,
        "lng": 29.95
    },
    {
        "name": "Kumport",
        "country": "Turkey",
        "code": "TRKMX",
        "lat": 40.95,
        "lng": 28.816666666666666
    },
    {
        "name": "Limas",
        "country": "Turkey",
        "code": "TRLMA",
        "lat": 38.75,
        "lng": 26.916666666666668
    },
    {
        "name": "Mardas",
        "country": "Turkey",
        "code": "TRMAD",
        "lat": 41.016666666666666,
        "lng": 28.95
    },
    {
        "name": "Mersin",
        "country": "Turkey",
        "code": "TRMER",
        "lat": 36.71666666666667,
        "lng": 34.63333333333333
    },
    {
        "name": "Samsun",
        "country": "Turkey",
        "code": "TRSSX",
        "lat": 41.28333333333333,
        "lng": 36.333333333333336
    },
    {
        "name": "Tekirdag",
        "country": "Turkey",
        "code": "TRTEK",
        "lat": 40.96666666666667,
        "lng": 27.516666666666666
    },
    {
        "name": "Trabzon",
        "country": "Turkey",
        "code": "TRTZX",
        "lat": 41,
        "lng": 39.733333333333334
    },
    {
        "name": "Yilport",
        "country": "Turkey",
        "code": "TRYPO",
        "lat": 40.766666666666666,
        "lng": 29.533333333333335
    },
    {
        "name": "Port-of-Spain",
        "country": "Trinidad and Tobago",
        "code": "TTPOS",
        "lat": 10.65,
        "lng": -61.516666666666666
    },
    {
        "name": "Port-of-Spain",
        "country": "Trinidad and Tobago",
        "code": "TTPOS",
        "lat": 10.65,
        "lng": -61.516666666666666
    },
    {
        "name": "Taipei",
        "country": "Taiwan, Province of China",
        "code": "TWTPE",
        "lat": 25.033333333333335,
        "lng": 121.51666666666667
    },
    {
        "name": "Dar es Salaam",
        "country": "Tanzania, United Republic of",
        "code": "TZDAR",
        "lat": -6.8,
        "lng": 39.28333333333333
    },
    {
        "name": "Chornomorsk",
        "country": "Ukraine",
        "code": "UAILK",
        "lat": 46.31666666666667,
        "lng": 30.666666666666668
    },
    { "name": "Odesa", "country": "Ukraine", "code": "UAODS", "lat": 46.5, "lng": 30.75 },
    {
        "name": "Yuzhnyi",
        "country": "Ukraine",
        "code": "UAYUZ",
        "lat": 46.6,
        "lng": 31.016666666666666
    },
    {
        "name": "Baltimore",
        "country": "United States",
        "code": "USBAL",
        "lat": 39.28333333333333,
        "lng": -76.61666666666666
    },
    {
        "name": "Chester",
        "country": "United States",
        "code": "USACL",
        "lat": 43.266666666666666,
        "lng": -72.58333333333333
    },
    {
        "name": "Eastport",
        "country": "United States",
        "code": "USEPI",
        "lat": 44.91896389779203,
        "lng": -67.0004603662156
    },
    {
        "name": "Fernandina Beach",
        "country": "United States",
        "code": "USFEB",
        "lat": 30.666666666666668,
        "lng": -81.45
    },
    {
        "name": "Gulfport",
        "country": "United States",
        "code": "USGFP",
        "lat": 30.37815645773978,
        "lng": -89.08490622032289
    },
    {
        "name": "Honolulu",
        "country": "United States",
        "code": "USHNL",
        "lat": 21.3,
        "lng": -157.85
    },
    {
        "name": "Houston",
        "country": "United States",
        "code": "USHKA",
        "lat": 61.63333333333333,
        "lng": -149.81666666666666
    },
    {
        "name": "Long Beach",
        "country": "United States",
        "code": "USLGB",
        "lat": 33.766666666666666,
        "lng": -118.18333333333334
    },
    { "name": "New York", "country": "United States", "code": "USNYC", "lat": 40.7, "lng": -74 },
    { "name": "Norfolk", "country": "United States", "code": "USNFF", "lat": 42, "lng": -73.2 },
    {
        "name": "Oakland",
        "country": "United States",
        "code": "USKND",
        "lat": 37.932904795821436,
        "lng": -122.22025462962964
    },
    {
        "name": "Philadelphia",
        "country": "United States",
        "code": "USPDP",
        "lat": 44.15,
        "lng": -75.71666666666667
    },
    {
        "name": "Port Everglades",
        "country": "United States",
        "code": "USPEF",
        "lat": 26.1,
        "lng": -80.13333333333334
    },
    {
        "name": "Port Hueneme",
        "country": "United States",
        "code": "USNTD",
        "lat": 34.13333333333333,
        "lng": -119.18333333333334
    },
    {
        "name": "Port Manatee",
        "country": "United States",
        "code": "USPME",
        "lat": 27.633333333333333,
        "lng": -82.55
    },
    {
        "name": "San Diego",
        "country": "United States",
        "code": "USSAN",
        "lat": 32.7,
        "lng": -117.15
    },
    {
        "name": "Stockton",
        "country": "United States",
        "code": "USSCK",
        "lat": 37.95,
        "lng": -121.28333333333333
    },
    {
        "name": "Wilmington",
        "country": "United States",
        "code": "USILM",
        "lat": 34.21666666666667,
        "lng": -77.93333333333334
    },
    {
        "name": "Punta Pereyra",
        "country": "Uruguay",
        "code": "UYPTP",
        "lat": -34.233333333333334,
        "lng": -58.06666666666667
    },
    {
        "name": "Kingstown",
        "country": "Saint Vincent and the Grenadines",
        "code": "VCKTN",
        "lat": 13.133333333333333,
        "lng": -61.21666666666667
    },
    {
        "name": "Pal a",
        "country": "Venezuela, Bolivarian Republic of",
        "code": "VEPLA",
        "lat": 8.35,
        "lng": -62.666666666666664
    },
    {
        "name": "Christiansted, Saint Croix",
        "country": "Virgin Islands, U.S.",
        "code": "VICTD",
        "lat": 17.75,
        "lng": -64.75
    },
    { "name": "Chu Lai", "country": "Viet Nam", "code": "VNC8Q", "lat": 15.4, "lng": 108.7 },
    {
        "name": "Da Nang",
        "country": "Viet Nam",
        "code": "VNDAD",
        "lat": 16.066666666666666,
        "lng": 108.21666666666667
    },
    {
        "name": "Ho Chi Minh City",
        "country": "Viet Nam",
        "code": "VNSGN",
        "lat": 10.766666666666667,
        "lng": 106.66666666666667
    },
    {
        "name": "Nghi Son",
        "country": "Viet Nam",
        "code": "VNNGH",
        "lat": 19.333333333333332,
        "lng": 105.83333333333333
    },
    {
        "name": "Qui Nhon",
        "country": "Viet Nam",
        "code": "VNUIH",
        "lat": 13.766666666666667,
        "lng": 109.21666666666667
    },
    {
        "name": "Vung Tau",
        "country": "Viet Nam",
        "code": "VNVUT",
        "lat": 10.35,
        "lng": 107.06666666666666
    },
    {
        "name": "Vele Futuna I. Apt",
        "country": "Wallis and Futuna",
        "code": "WFFUT",
        "lat": -14.316666666666666,
        "lng": -178.08333333333334
    },
    {
        "name": "Longoni",
        "country": "Mayotte",
        "code": "YTLON",
        "lat": -12.716666666666667,
        "lng": 45.166666666666664
    },
    {
        "name": "Cape Town",
        "country": "South Africa",
        "code": "ZACPT",
        "lat": -33.916666666666664,
        "lng": 18.416666666666668
    },
    {
        "name": "Coega",
        "country": "South Africa",
        "code": "ZAZBA",
        "lat": -33.766666666666666,
        "lng": 25.666666666666668
    },
    {
        "name": "Durban",
        "country": "South Africa",
        "code": "ZADUR",
        "lat": -29.85,
        "lng": 31.016666666666666
    },
    {
        "name": "Ajman",
        "country": "United Arab Emirates",
        "code": "AEAJM",
        "lat": 25.40177,
        "lng": 55.47878
    },
    {
        "name": "Jebel Ali",
        "country": "United Arab Emirates",
        "code": "AEJEA",
        "lat": 25.00255,
        "lng": 55.10811
    },
    {
        "name": "Anguilla",
        "country": "Anguilla",
        "code": "AIAXA",
        "lat": 18.17648,
        "lng": -63.09375
    },
    { "name": "Durr s", "country": "Albania", "code": "ALDRZ", "lat": 41.32355, "lng": 19.45469 },
    { "name": "Durr s", "country": "Albania", "code": "ALDRZ", "lat": 41.32355, "lng": 19.45469 },
    { "name": "Cabinda", "country": "Angola", "code": "AOCAB", "lat": -5.55, "lng": 12.2 },
    { "name": "Lobito", "country": "Angola", "code": "AOLOB", "lat": -12.3644, "lng": 13.53601 },
    { "name": "Luanda", "country": "Angola", "code": "AOLAD", "lat": -8.83682, "lng": 13.23432 },
    {
        "name": "Malongo",
        "country": "Angola",
        "code": "AOMAL",
        "lat": -5.396406481852449,
        "lng": 12.19802179783948
    },
    { "name": "Namibe", "country": "Angola", "code": "AOMSZ", "lat": -15.19611, "lng": 12.15222 },
    { "name": "Soyo", "country": "Angola", "code": "AOSZA", "lat": -6.1349, "lng": 12.36894 },
    { "name": "Bell Bay", "country": "Australia", "code": "AUBEL", "lat": -41.13, "lng": 146.87 },
    {
        "name": "Burnie",
        "country": "Australia",
        "code": "AUBWT",
        "lat": -41.05584,
        "lng": 145.90375
    },
    {
        "name": "Cairns",
        "country": "Australia",
        "code": "AUCNS",
        "lat": -16.92366,
        "lng": 145.76613
    },
    {
        "name": "Dampier",
        "country": "Australia",
        "code": "AUDAM",
        "lat": -20.66275,
        "lng": 116.71256
    },
    {
        "name": "Devonport",
        "country": "Australia",
        "code": "AUDPO",
        "lat": -41.17695,
        "lng": 146.35152
    },
    {
        "name": "Fremantle",
        "country": "Australia",
        "code": "AUFRE",
        "lat": -32.05632,
        "lng": 115.74557
    },
    {
        "name": "Geelong",
        "country": "Australia",
        "code": "AUGEX",
        "lat": -38.14711,
        "lng": 144.36069
    },
    {
        "name": "Newcastle",
        "country": "Australia",
        "code": "AUNTL",
        "lat": -32.92953,
        "lng": 151.7801
    },
    {
        "name": "Port Botany",
        "country": "Australia",
        "code": "AUPBT",
        "lat": -33.97447,
        "lng": 151.22277
    },
    {
        "name": "Port Kembla",
        "country": "Australia",
        "code": "AUPKL",
        "lat": -34.4818,
        "lng": 150.9012
    },
    {
        "name": "Townsville",
        "country": "Australia",
        "code": "AUTSV",
        "lat": -19.26639,
        "lng": 146.80569
    },
    {
        "name": "Weipa",
        "country": "Australia",
        "code": "AUWEI",
        "lat": -12.62346,
        "lng": 141.87883
    },
    {
        "name": "Oranjestad",
        "country": "Aruba",
        "code": "AWORJ",
        "lat": 12.52398,
        "lng": -70.02703
    },
    {
        "name": "Bridgetown",
        "country": "Barbados",
        "code": "BBBGI",
        "lat": 13.10732,
        "lng": -59.62021
    },
    {
        "name": "Mongla",
        "country": "Bangladesh",
        "code": "BDMGL",
        "lat": 22.47223,
        "lng": 89.61095
    },
    { "name": "Burgas", "country": "Bulgaria", "code": "BGBOJ", "lat": 42.50606, "lng": 27.46781 },
    { "name": "Varna", "country": "Bulgaria", "code": "BGVAR", "lat": 43.21667, "lng": 27.91667 },
    { "name": "Cotonou", "country": "Benin", "code": "BJCOO", "lat": 6.36536, "lng": 2.41833 },
    { "name": "Hamilton", "country": "Bermuda", "code": "BMBDA", "lat": 32.2949, "lng": -64.78303 },
    {
        "name": "Fortaleza",
        "country": "Brazil",
        "code": "BRFOR",
        "lat": -3.71722,
        "lng": -38.54306
    },
    { "name": "Ilheus", "country": "Brazil", "code": "BRIOS", "lat": -14.79364, "lng": -39.03949 },
    { "name": "Imbituba", "country": "Brazil", "code": "BRIBB", "lat": -28.24, "lng": -48.67028 },
    { "name": "Itajai", "country": "Brazil", "code": "BRITJ", "lat": -26.90778, "lng": -48.66194 },
    { "name": "Manaus", "country": "Brazil", "code": "BRMAO", "lat": -3.10194, "lng": -60.025 },
    { "name": "Natal", "country": "Brazil", "code": "BRNAT", "lat": -5.795, "lng": -35.20944 },
    {
        "name": "Rio Grande",
        "country": "Brazil",
        "code": "BRRIG",
        "lat": -22.90642,
        "lng": -43.18223
    },
    {
        "name": "Salvador",
        "country": "Brazil",
        "code": "BRSSA",
        "lat": -12.97111,
        "lng": -38.51083
    },
    { "name": "Suape", "country": "Brazil", "code": "BRSUA", "lat": -12.74083, "lng": -38.62083 },
    {
        "name": "Belize City",
        "country": "Belize",
        "code": "BZBZE",
        "lat": 17.49952,
        "lng": -88.19756
    },
    { "name": "Halifax", "country": "Canada", "code": "CAHAL", "lat": 44.6464, "lng": -63.57291 },
    { "name": "Montreal", "country": "Canada", "code": "CAMTR", "lat": 45.50884, "lng": -73.58781 },
    {
        "name": "New Westminster",
        "country": "Canada",
        "code": "CANWE",
        "lat": 49.20678,
        "lng": -122.91092
    },
    {
        "name": "Prince Rupert",
        "country": "Canada",
        "code": "CAPRR",
        "lat": 54.31507,
        "lng": -130.32098
    },
    {
        "name": "Squamish",
        "country": "Canada",
        "code": "CASQA",
        "lat": 50.11817,
        "lng": -122.95396
    },
    { "name": "Toronto", "country": "Canada", "code": "CATOR", "lat": 43.70011, "lng": -79.4163 },
    {
        "name": "Vancouver",
        "country": "Canada",
        "code": "CAVAN",
        "lat": 49.24966,
        "lng": -123.11934
    },
    {
        "name": "Aitutaki",
        "country": "Cook Islands",
        "code": "CKAIT",
        "lat": -18.85195,
        "lng": -159.79293
    },
    {
        "name": "Rarotonga",
        "country": "Cook Islands",
        "code": "CKRAR",
        "lat": -21.2075,
        "lng": -159.77545
    },
    { "name": "Douala", "country": "Cameroon", "code": "CMDLA", "lat": 4.04827, "lng": 9.70428 },
    { "name": "Kribi", "country": "Cameroon", "code": "CMKBI", "lat": 2.93725, "lng": 9.90765 },
    {
        "name": "Barranquilla",
        "country": "Colombia",
        "code": "COBAQ",
        "lat": 10.96854,
        "lng": -74.78132
    },
    {
        "name": "Buenaventura",
        "country": "Colombia",
        "code": "COBUN",
        "lat": 3.8801,
        "lng": -77.03116
    },
    {
        "name": "Cartagena",
        "country": "Colombia",
        "code": "COCTG",
        "lat": 10.39972,
        "lng": -75.51444
    },
    {
        "name": "Santa Marta",
        "country": "Colombia",
        "code": "COSMR",
        "lat": 11.24079,
        "lng": -74.19904
    },
    { "name": "Moa", "country": "Cuba", "code": "CUMOA", "lat": 20.65776, "lng": -74.95075 },
    {
        "name": "Santiago de Cuba",
        "country": "Cuba",
        "code": "CUSCU",
        "lat": 20.02083,
        "lng": -75.82667
    },
    {
        "name": "Palmeira",
        "country": "Cabo Verde",
        "code": "CVPAL",
        "lat": 16.75754,
        "lng": -22.98348
    },
    {
        "name": "Praia",
        "country": "Cabo Verde",
        "code": "CVRAI",
        "lat": 14.93152,
        "lng": -23.51254
    },
    {
        "name": "Sal Rei",
        "country": "Cabo Verde",
        "code": "CVSAR",
        "lat": 16.17611,
        "lng": -22.91722
    },
    { "name": "Bremen", "country": "Germany", "code": "DEBRE", "lat": 53.07582, "lng": 8.80717 },
    {
        "name": "Bremerhaven",
        "country": "Germany",
        "code": "DEBRV",
        "lat": 53.53615,
        "lng": 8.59298
    },
    { "name": "Hamburg", "country": "Germany", "code": "DEHAM", "lat": 53.55073, "lng": 9.99302 },
    { "name": "L beck", "country": "Germany", "code": "DELBC", "lat": 53.86893, "lng": 10.68729 },
    {
        "name": "Travem nde",
        "country": "Germany",
        "code": "DETRV",
        "lat": 53.96304,
        "lng": 10.8709
    },
    {
        "name": "Djibouti",
        "country": "Djibouti",
        "code": "DJJIB",
        "lat": 11.58901,
        "lng": 43.14503
    },
    { "name": "Aalborg", "country": "Denmark", "code": "DKAAL", "lat": 57.048, "lng": 9.9187 },
    { "name": "Esbjerg", "country": "Denmark", "code": "DKEBJ", "lat": 55.47028, "lng": 8.45187 },
    {
        "name": "Fredericia",
        "country": "Denmark",
        "code": "DKFRC",
        "lat": 55.56568,
        "lng": 9.75257
    },
    { "name": "Grenaa", "country": "Denmark", "code": "DKGRE", "lat": 56.41578, "lng": 10.87825 },
    {
        "name": "Hundested",
        "country": "Denmark",
        "code": "DKHUN",
        "lat": 55.96397,
        "lng": 11.85044
    },
    { "name": "Skagen", "country": "Denmark", "code": "DKSKA", "lat": 57.72093, "lng": 10.58394 },
    { "name": "Roseau", "country": "Dominica", "code": "DMRSU", "lat": 15.30174, "lng": -61.38808 },
    {
        "name": "Boca Chica",
        "country": "Dominican Republic",
        "code": "DOBCC",
        "lat": 18.45,
        "lng": -69.6
    },
    {
        "name": "Puerto Plata",
        "country": "Dominican Republic",
        "code": "DOPOP",
        "lat": 19.79344,
        "lng": -70.6884
    },
    {
        "name": "Mostaganem",
        "country": "Algeria",
        "code": "DZMOS",
        "lat": 35.93115,
        "lng": 0.08918
    },
    { "name": "Oran", "country": "Algeria", "code": "DZORN", "lat": 35.69906, "lng": -0.63588 },
    {
        "name": "El Dekheila",
        "country": "Egypt",
        "code": "EGEDK",
        "lat": 31.13133,
        "lng": 29.82126
    },
    { "name": "Port Said", "country": "Egypt", "code": "EGPSD", "lat": 31.26531, "lng": 32.3019 },
    { "name": "Algeciras", "country": "Spain", "code": "ESALG", "lat": 36.13326, "lng": -5.45051 },
    { "name": "Alicante", "country": "Spain", "code": "ESALC", "lat": 38.34517, "lng": -0.48149 },
    { "name": "Barcelona", "country": "Spain", "code": "ESBCN", "lat": 41.38879, "lng": 2.15899 },
    { "name": "Cadiz", "country": "Spain", "code": "ESCAD", "lat": 36.52672, "lng": -6.2891 },
    { "name": "Ceuta", "country": "Spain", "code": "ESCEU", "lat": 35.88919, "lng": -5.32042 },
    { "name": "Huelva", "country": "Spain", "code": "ESHUV", "lat": 37.26638, "lng": -6.94004 },
    {
        "name": "Puerto del Rosario-Fuerteventura",
        "country": "Spain",
        "code": "ESFUE",
        "lat": 28.50038,
        "lng": -13.86272
    },
    {
        "name": "Santa Cruz de Tenerife",
        "country": "Spain",
        "code": "ESSCT",
        "lat": 28.46824,
        "lng": -16.25462
    },
    { "name": "Santander", "country": "Spain", "code": "ESSDR", "lat": 43.46472, "lng": -3.80444 },
    { "name": "Sevilla", "country": "Spain", "code": "ESSVQ", "lat": 37.38283, "lng": -5.97317 },
    { "name": "Tarragona", "country": "Spain", "code": "ESTAR", "lat": 41.11667, "lng": 1.25 },
    { "name": "Valencia", "country": "Spain", "code": "ESVLC", "lat": 39.46975, "lng": -0.37739 },
    { "name": "Vigo", "country": "Spain", "code": "ESVGO", "lat": 42.23282, "lng": -8.72264 },
    {
        "name": "Hang  (Hanko)",
        "country": "Finland",
        "code": "FIHKO",
        "lat": 59.83333,
        "lng": 22.95
    },
    {
        "name": "Hanko (Hang )",
        "country": "Finland",
        "code": "FIHKO",
        "lat": 59.83333,
        "lng": 22.95
    },
    {
        "name": "Helsingfors (Helsinki)",
        "country": "Finland",
        "code": "FIHEL",
        "lat": 60.16952,
        "lng": 24.93545
    },
    {
        "name": "Helsinki (Helsingfors)",
        "country": "Finland",
        "code": "FIHEL",
        "lat": 60.16952,
        "lng": 24.93545
    },
    {
        "name": "Valko (Valkom)",
        "country": "Finland",
        "code": "FIVKO",
        "lat": 60.41392,
        "lng": 26.24664
    },
    {
        "name": "Valkom (Valko)",
        "country": "Finland",
        "code": "FIVKO",
        "lat": 60.41392,
        "lng": 26.24664
    },
    { "name": "Libreville", "country": "Gabon", "code": "GALBV", "lat": 0.39241, "lng": 9.45356 },
    { "name": "Port Gentil", "country": "Gabon", "code": "GAPOG", "lat": -0.71933, "lng": 8.78151 },
    {
        "name": "Blyth",
        "country": "United Kingdom",
        "code": "GBBLY",
        "lat": 55.12708,
        "lng": -1.50856
    },
    {
        "name": "Bristol",
        "country": "United Kingdom",
        "code": "GBBRS",
        "lat": 51.45523,
        "lng": -2.59665
    },
    {
        "name": "Dover",
        "country": "United Kingdom",
        "code": "GBDVR",
        "lat": 51.12598,
        "lng": 1.31257
    },
    {
        "name": "Felixstowe",
        "country": "United Kingdom",
        "code": "GBFXT",
        "lat": 51.96375,
        "lng": 1.3511
    },
    {
        "name": "Fowey",
        "country": "United Kingdom",
        "code": "GBFOY",
        "lat": 50.33634,
        "lng": -4.6386
    },
    {
        "name": "Harwich",
        "country": "United Kingdom",
        "code": "GBHRW",
        "lat": 51.94194,
        "lng": 1.28437
    },
    {
        "name": "Poole",
        "country": "United Kingdom",
        "code": "GBPOO",
        "lat": 50.71429,
        "lng": -1.98458
    },
    {
        "name": "Portsmouth",
        "country": "United Kingdom",
        "code": "GBPME",
        "lat": 50.79899,
        "lng": -1.09125
    },
    {
        "name": "Scrabster",
        "country": "United Kingdom",
        "code": "GBSCR",
        "lat": 58.61277,
        "lng": -3.54627
    },
    {
        "name": "Sheerness",
        "country": "United Kingdom",
        "code": "GBSHS",
        "lat": 51.44042,
        "lng": 0.76252
    },
    {
        "name": "Southampton",
        "country": "United Kingdom",
        "code": "GBSOU",
        "lat": 50.90395,
        "lng": -1.40428
    },
    {
        "name": "Tilbury",
        "country": "United Kingdom",
        "code": "GBTIL",
        "lat": 51.46248,
        "lng": 0.35856
    },
    {
        "name": "Saint George's",
        "country": "Grenada",
        "code": "GDSTG",
        "lat": 12.05288,
        "lng": -61.75226
    },
    { "name": "Batumi", "country": "Georgia", "code": "GEBUS", "lat": 41.64228, "lng": 41.63392 },
    { "name": "Poti", "country": "Georgia", "code": "GEPTI", "lat": 42.14272, "lng": 41.67384 },
    { "name": "Takoradi", "country": "Ghana", "code": "GHTKD", "lat": 4.89816, "lng": -1.76029 },
    { "name": "Tema", "country": "Ghana", "code": "GHTEM", "lat": 5.6698, "lng": -0.01657 },
    {
        "name": "Gibraltar",
        "country": "Gibraltar",
        "code": "GIGIB",
        "lat": 36.14474,
        "lng": -5.35257
    },
    {
        "name": "Sisimiut (Holsteinsborg)",
        "country": "Greenland",
        "code": "GLJHS",
        "lat": 66.93946,
        "lng": -53.6735
    },
    { "name": "Banjul", "country": "Gambia", "code": "GMBJL", "lat": 13.45274, "lng": -16.57803 },
    { "name": "Conakry", "country": "Guinea", "code": "GNCKY", "lat": 9.53795, "lng": -13.67729 },
    {
        "name": "Bata",
        "country": "Equatorial Guinea",
        "code": "GQBSG",
        "lat": 1.86391,
        "lng": 9.76582
    },
    {
        "name": "Malabo",
        "country": "Equatorial Guinea",
        "code": "GQSSG",
        "lat": 3.75578,
        "lng": 8.78166
    },
    {
        "name": "Puerto Barrios",
        "country": "Guatemala",
        "code": "GTPBR",
        "lat": 15.72778,
        "lng": -88.59444
    },
    {
        "name": "Georgetown",
        "country": "Guyana",
        "code": "GYGEO",
        "lat": 6.80448,
        "lng": -58.15527
    },
    {
        "name": "Hong Kong",
        "country": "Hong Kong",
        "code": "HKHKG",
        "lat": 22.27832,
        "lng": 114.17469
    },
    {
        "name": "Puerto Castilla",
        "country": "Honduras",
        "code": "HNPCA",
        "lat": 16.01667,
        "lng": -85.96667
    },
    {
        "name": "Puerto Cort s",
        "country": "Honduras",
        "code": "HNPCR",
        "lat": 15.82562,
        "lng": -87.92968
    },
    {
        "name": "San Lorenzo",
        "country": "Honduras",
        "code": "HNSLO",
        "lat": 13.42417,
        "lng": -87.44722
    },
    {
        "name": "Port-au-Prince",
        "country": "Haiti",
        "code": "HTPAP",
        "lat": 18.54349,
        "lng": -72.33881
    },
    {
        "name": "Banjarmasin",
        "country": "Indonesia",
        "code": "IDBDJ",
        "lat": -3.31987,
        "lng": 114.59075
    },
    {
        "name": "Belawan, Sumatra",
        "country": "Indonesia",
        "code": "IDBLW",
        "lat": 3.7755,
        "lng": 98.6832
    },
    {
        "name": "Bitung, Sulawesi",
        "country": "Indonesia",
        "code": "IDBIT",
        "lat": 1.44059,
        "lng": 125.12824
    },
    {
        "name": "Gorontalo, Sulawesi",
        "country": "Indonesia",
        "code": "IDGTO",
        "lat": -0.8985,
        "lng": 123.3908
    },
    {
        "name": "Kendari, Sulawesi",
        "country": "Indonesia",
        "code": "IDKDI",
        "lat": -3.9778,
        "lng": 122.51507
    },
    { "name": "Luwuk", "country": "Indonesia", "code": "IDLUW", "lat": -0.9516, "lng": 122.7875 },
    {
        "name": "Medan, Sumatra",
        "country": "Indonesia",
        "code": "IDMES",
        "lat": 3.58333,
        "lng": 98.66667
    },
    {
        "name": "Palembang, Sumatra",
        "country": "Indonesia",
        "code": "IDPLM",
        "lat": -2.91673,
        "lng": 104.7458
    },
    { "name": "Panjang", "country": "Indonesia", "code": "IDPNJ", "lat": 0.3087, "lng": 100.6199 },
    {
        "name": "Pontianak, Kalimantan",
        "country": "Indonesia",
        "code": "IDPNK",
        "lat": -0.03194,
        "lng": 109.325
    },
    {
        "name": "Samarinda, Kalimantan",
        "country": "Indonesia",
        "code": "IDSRI",
        "lat": -0.49167,
        "lng": 117.14583
    },
    {
        "name": "Sorong",
        "country": "Indonesia",
        "code": "IDSOQ",
        "lat": -0.87956,
        "lng": 131.26104
    },
    {
        "name": "Tarakan, Kalimantan",
        "country": "Indonesia",
        "code": "IDTRK",
        "lat": 3.31332,
        "lng": 117.59152
    },
    { "name": "Tolitoli", "country": "Indonesia", "code": "IDTLI", "lat": 1.2718, "lng": 121.1679 },
    { "name": "Cork", "country": "Ireland", "code": "IEORK", "lat": 51.89797, "lng": -8.47061 },
    { "name": "Dublin", "country": "Ireland", "code": "IEDUB", "lat": 53.33306, "lng": -6.24889 },
    { "name": "Ashdod", "country": "Israel", "code": "ILASH", "lat": 31.79213, "lng": 34.64966 },
    { "name": "Ennore", "country": "India", "code": "INENR", "lat": 13.24751, "lng": 80.32835 },
    { "name": "Haldia", "country": "India", "code": "INHAL", "lat": 22.06046, "lng": 88.10975 },
    {
        "name": "Krishnapatnam",
        "country": "India",
        "code": "INKRI",
        "lat": 14.28874,
        "lng": 80.12388
    },
    { "name": "Mangalore", "country": "India", "code": "INIXE", "lat": 12.91723, "lng": 74.85603 },
    { "name": "Mundra", "country": "India", "code": "INMUN", "lat": 22.83918, "lng": 69.7219 },
    { "name": "Port Blair", "country": "India", "code": "INIXZ", "lat": 11.66613, "lng": 92.74635 },
    {
        "name": "Abu Al Fulus",
        "country": "Iraq",
        "code": "IQALF",
        "lat": 30.44783,
        "lng": 48.04246
    },
    { "name": "Basra", "country": "Iraq", "code": "IQBSR", "lat": 30.50852, "lng": 47.7804 },
    {
        "name": "Grundarfj rdur",
        "country": "Iceland",
        "code": "ISGRF",
        "lat": 64.92427,
        "lng": -23.26313
    },
    {
        "name": "Reydarfj rdur",
        "country": "Iceland",
        "code": "ISRFJ",
        "lat": 65.03164,
        "lng": -14.21832
    },
    {
        "name": "Marina di Carrara",
        "country": "Italy",
        "code": "ITMDC",
        "lat": 44.03837,
        "lng": 10.04142
    },
    { "name": "Monfalcone", "country": "Italy", "code": "ITMNF", "lat": 45.80463, "lng": 13.53292 },
    { "name": "Pozzuoli", "country": "Italy", "code": "ITPOZ", "lat": 40.84394, "lng": 14.0952 },
    { "name": "Ravenna", "country": "Italy", "code": "ITRAN", "lat": 44.41344, "lng": 12.20121 },
    { "name": "Salerno", "country": "Italy", "code": "ITSAL", "lat": 40.67545, "lng": 14.79328 },
    { "name": "Trieste", "country": "Italy", "code": "ITTRS", "lat": 45.64953, "lng": 13.77678 },
    {
        "name": "Kingston",
        "country": "Jamaica",
        "code": "JMKIN",
        "lat": 17.99702,
        "lng": -76.79358
    },
    {
        "name": "Montego Bay",
        "country": "Jamaica",
        "code": "JMMBJ",
        "lat": 18.47116,
        "lng": -77.91883
    },
    { "name": "Aburatsu", "country": "Japan", "code": "JPABU", "lat": 44.02127, "lng": 144.26971 },
    { "name": "Akita", "country": "Japan", "code": "JPAXT", "lat": 39.71667, "lng": 140.11667 },
    { "name": "Chiba", "country": "Japan", "code": "JPCHB", "lat": 35.6, "lng": 140.11667 },
    {
        "name": "Fukuyama, Hiroshima",
        "country": "Japan",
        "code": "JPFKY",
        "lat": 34.48333,
        "lng": 133.36667
    },
    { "name": "Hachinohe", "country": "Japan", "code": "JPHHE", "lat": 40.5, "lng": 141.5 },
    { "name": "Hiroshima", "country": "Japan", "code": "JPHIJ", "lat": 34.4, "lng": 132.45 },
    { "name": "Hitachi", "country": "Japan", "code": "JPHTC", "lat": 36.6, "lng": 140.65 },
    { "name": "Hososhima", "country": "Japan", "code": "JPHSM", "lat": 32.43333, "lng": 131.66667 },
    { "name": "Imabari", "country": "Japan", "code": "JPIMB", "lat": 34.07001, "lng": 133.00023 },
    { "name": "Imari", "country": "Japan", "code": "JPIMI", "lat": 33.27362, "lng": 129.87877 },
    { "name": "Iwakuni", "country": "Japan", "code": "JPIWK", "lat": 34.16297, "lng": 132.22 },
    { "name": "Kanazawa", "country": "Japan", "code": "JPKNZ", "lat": 36.6, "lng": 136.61667 },
    {
        "name": "Kashima, Ibaraki",
        "country": "Japan",
        "code": "JPKSM",
        "lat": 35.96536,
        "lng": 140.64474
    },
    { "name": "Kawasaki", "country": "Japan", "code": "JPKWS", "lat": 35.52056, "lng": 139.71722 },
    { "name": "Kochi", "country": "Japan", "code": "JPKCZ", "lat": 33.55, "lng": 133.53333 },
    { "name": "Kumamoto", "country": "Japan", "code": "JPKMJ", "lat": 32.80589, "lng": 130.69181 },
    { "name": "Maizuru", "country": "Japan", "code": "JPMAI", "lat": 35.45, "lng": 135.33333 },
    { "name": "Matsuyama", "country": "Japan", "code": "JPMYJ", "lat": 33.83916, "lng": 132.76574 },
    {
        "name": "Miike, Fukuoka",
        "country": "Japan",
        "code": "JPMII",
        "lat": 33.05207,
        "lng": 130.47791
    },
    { "name": "Mizushima", "country": "Japan", "code": "JPMIZ", "lat": 34.5298, "lng": 133.73896 },
    { "name": "Muroran", "country": "Japan", "code": "JPMUR", "lat": 42.31722, "lng": 140.98806 },
    { "name": "Nagasaki", "country": "Japan", "code": "JPNGS", "lat": 32.75, "lng": 129.88333 },
    {
        "name": "Nagoya, Aichi",
        "country": "Japan",
        "code": "JPNGO",
        "lat": 35.18147,
        "lng": 136.90641
    },
    {
        "name": "Naha, Okinawa",
        "country": "Japan",
        "code": "JPNAH",
        "lat": 26.21667,
        "lng": 127.68333
    },
    { "name": "Naoetsu", "country": "Japan", "code": "JPNAO", "lat": 37.18333, "lng": 138.25 },
    { "name": "Niigata", "country": "Japan", "code": "JPKIJ", "lat": 37.88637, "lng": 139.00589 },
    { "name": "Oita", "country": "Japan", "code": "JPOIT", "lat": 33.23333, "lng": 131.6 },
    { "name": "Omaezaki", "country": "Japan", "code": "JPOMZ", "lat": 34.59882, "lng": 138.21934 },
    { "name": "Onahama", "country": "Japan", "code": "JPONA", "lat": 36.95, "lng": 140.9 },
    { "name": "Otake", "country": "Japan", "code": "JPOTK", "lat": 34.20754, "lng": 132.22063 },